,Order,Destination,Address,Tag,DriveCourseID,PlaceID,latitude,longitude,LocalID,WithID,ViewID,ActiveID
0,1,미평산림욕장,전라남도 여수시 미평동 21-1,#관광지 #산림욕 #숲산책 #여수관광 #여수여행 #전남여행,DC001,P001,34.7644965,127.709803,LC007,"WT001, WT002, WT003, WT004","VW001, VW002, VW003","AC001, AC002, AC004"
1,2,여수 녹테마레,전라남도 여수시 만성로 (294),#가볼래터 #문화시설 #미디어아트 #여수 #여수가볼만한곳 #여행구독 #전시관,DC001,P002,34.7745604,127.725915,LC007,"WT001, WT002, WT003, WT004","VW001, VW002, VW003","AC001, AC002, AC004"
2,3,여수국가대표패러글라이딩,전라남도 여수시 망양로 225,#레포츠 #여수시 #여수패러글라이딩 #패러글라이딩,DC001,P003,34.7744243279691,127.744622722113,LC007,"WT001, WT002, WT003, WT004","VW001, VW002, VW003","AC001, AC002, AC004"
3,4,여수 해양레일바이크,전라남도 여수시 망양로 187,#2024_여행가는달과함께하는_발도장여행지 #가족과함께 #레일바이크 #레포츠 #여수가볼만한곳 #여수바다 #여수여행 #여수해양레일바이크 #연인과함께 #친구와함께 #해양레일바이크,DC001,P004,34.7721251257256,127.746819599053,LC007,"WT001, WT002, WT003, WT004","VW001, VW002, VW003","AC001, AC002, AC004"
4,5,만성리 검은모래해변,전라남도 여수시 만성리길 15-1,#가족과함께 #검은모래해변 #관광지 #바다 #아이와함께 #여수가볼만한곳 #여수검은모래사장 #여수모래찜질명소 #여수바닷가 #여수여행 #여수해수욕장추천 #자연 #자연여행 #자연좋은곳 #자연풍경 #자연환경 #전라권 #전라남도여행 #휴식여행 #휴식하기좋은곳,DC001,P005,34.7759771541926,127.744607723206,LC007,"WT001, WT002, WT003, WT004","VW001, VW002, VW003","AC001, AC002, AC004"
5,6,모사금해수욕장,전라남도 여수시 오천동,#가족과함께 #관광지 #모사금피서지 #모사금해수욕장 #여름피서지 #여름휴가 #자연 #자연좋은곳 #자연환경 #전라권 #풍경좋은곳 #해수욕장 #휴식여행 #휴식하기좋은곳 #힐링여행,DC001,P006,34.7971792546936,127.747988031527,LC007,"WT001, WT002, WT003, WT004","VW001, VW002, VW003","AC001, AC002, AC004"
6,7,신덕해수욕장 / 신덕해변,전라남도 여수시 신덕2길 16-9,#관광지 #기암절벽 #바다체험 #신덕해변 #신덕해수욕장 #아이와함께 #여수바다 #여수여행 #여수해수욕장,DC001,P007,34.8189349403611,127.766863175112,LC007,"WT001, WT002, WT003, WT004","VW001, VW002, VW003","AC001, AC002, AC004"
7,1,궁리포구,충청남도 홍성군 서부면 남당항로 853-5,#관광지 #궁리포구 #바다경치 #바다내음 #일몰여행 #자연 #자연좋은곳 #자연환경 #천수만 #충청권 #포구 #홍성12경 #홍성명품낙조 #홍성포구,DC002,P008,36.5889216217204,126.457733338553,LC003,"WT001, WT002, WT003, WT004","VW001, VW002, VW003, VW004, VW006, VW007, VW008","AC001, AC004, AC005, AC006"
8,2,속동전망대,충청남도 홍성군 서부면 남당항로 689,#갯벌 #경치좋은곳 #관광지 #데이트코스 #바다경치 #바다전망 #바다전망대 #사진찍기좋은곳 #사진촬영 #속동갯벌 #연인과함께 #자연좋은곳 #자연환경 #전망대 #커플데이트 #타이타닉포토존 #해안전망대 #홍성속동전망대,DC002,P009,36.5770226953143,126.464592720503,LC003,"WT001, WT002, WT003, WT004","VW001, VW002, VW003, VW004, VW006, VW007, VW008","AC001, AC004, AC005, AC006"
9,3,남당항,충청남도 홍성군 서부면 남당리,#가족과함께 #관광지 #남당항 #대하 #대하축제 #미식여행 #바다풍경 #새조개 #새조개축제 #수산물 #자연 #죽도 #천수만 #철새도래지 #충청권 #홍성남당항,DC002,P010,36.5398850176414,126.479723667165,LC003,"WT001, WT002, WT003, WT004","VW001, VW002, VW003, VW004, VW006, VW007, VW008","AC001, AC004, AC005, AC006"
10,4,홍성방조제,충청남도 홍성군 서부면,#관광지 #바다풍경 #방조제 #자연 #충청권 #홍성 #홍성방조제 #홍성여행 #힐링,DC002,P011,36.5803273092588,126.51723142167,LC003,"WT001, WT002, WT003, WT004","VW001, VW002, VW003, VW004, VW006, VW007, VW008","AC001, AC004, AC005, AC006"
11,5,보령방조제,충청남도 보령시 오천면,#관광지 #광천천 #바다풍경 #보령방조제 #빙도 #서해방조제 #오천항 #일몰감상지 #자연 #충남방조제 #충남보령방조제 #충청권 #힐링,DC002,P012,36.4370877555063,126.523424331254,LC003,"WT001, WT002, WT003, WT004","VW001, VW002, VW003, VW004, VW006, VW007, VW008","AC001, AC004, AC005, AC006"
12,6,보령 충청수영성,충청남도 보령시 오천면 충청수영로,#가족여행 #관광지 #교과서속여행 #동백꽃필무렵 #드라마촬영지 #보령문화재 #보령오천성 #보령충청수영성 #사적 #아이와함께 #역사 #역사유적지 #연인과함께 #자연좋은곳 #전망좋은곳 #전통&역사문화체험 #충청수영성 #친구와함께 #한옥&전통가옥,DC002,P013,36.4398663,126.522982,LC003,"WT001, WT002, WT003, WT004","VW001, VW002, VW003, VW004, VW006, VW007, VW008","AC001, AC004, AC005, AC006"
13,7,대천항,충청남도 보령시 대천항중앙길 42,#가족여행 #관광지 #꽃게 #대천항 #대천항수산시장 #대천항연안여객터미널 #보령여행 #서해 #수산물시장 #수산시장 #여객선터미널 #자연 #충청권 #친구와함께 #항구 #해산물,DC002,P014,36.3273037196364,126.50923284561,LC003,"WT001, WT002, WT003, WT004","VW001, VW002, VW003, VW004, VW006, VW007, VW008","AC001, AC004, AC005, AC006"
14,8,안면암(태안),충청남도 태안군 안면읍 여수해길 198-160,#가볼래터 #가족여행 #관광지 #바다 #불교문화 #불교사찰 #사찰 #안면암 #여행구독 #역사 #자연 #자연환경 #종교 #충청권 #태안가볼만한곳 #한국불교 #휴식하기좋은곳,DC002,P015,36.5594227746266,126.373799625052,LC003,"WT001, WT002, WT003, WT004","VW001, VW002, VW003, VW004, VW006, VW007, VW008","AC001, AC004, AC005, AC006"
15,9,고남패총박물관,충청남도 태안군 고남면 안면대로 4270-6,#고남패총박물관 #교과서속여행 #문화시설 #민속생활관 #박물관 #박물관체험학습 #사계절 #실내여행지 #아이와함께 #어린이체험 #체험학습 #충청권 #태안고남패총박물관 #태안문화시설,DC002,P016,36.4203273515545,126.410006354518,LC003,"WT001, WT002, WT003, WT004","VW001, VW002, VW003, VW004, VW006, VW007, VW008","AC001, AC004, AC005, AC006"
16,10,꽃지해수욕장,충청남도 태안군 안면읍 승언리,#2024_여행가는달과함께하는_발도장여행지 #21_22한국관광100선 #23_24한국관광100선 #관광지 #꽃지해수욕장 #바다풍경 #아이와함께 #연인과함께 #자연 #충청권 #친구와함께 #한국관광100선,DC002,P017,36.5051678525711,126.362764309111,LC003,"WT001, WT002, WT003, WT004","VW001, VW002, VW003, VW004, VW006, VW007, VW008","AC001, AC004, AC005, AC006"
17,1,이가리 닻 전망대,경상북도 포항시 북구 청하면 이가리,#2024_여행가는달과함께하는_발도장여행지 #가족과함께 #경치여행 #경치좋은곳 #관광지 #드라마촬영지 #바다경치 #바다내음 #사진찍기 #사진찍기좋은곳 #포항가볼만한곳 #포항여행,DC003,P018,36.1831970427413,129.378664301228,LC006,"WT001, WT002, WT003, WT004, WT005","VW001, VW002, VW003, VW004, VW005, VW008","AC002, AC003, AC004, AC005, AC006"
18,2,스페이스워크,경상북도 포항시 북구 환호공원길 30,#2023 #2023한국관광의별 #2024_여행가는달과함께하는_발도장여행지 #23_24한국관광100선 #가볼래터 #가족과함게 #경상권 #경치좋은곳 #관광지 #남녀노소 #사진찍기 #사진찍기좋은곳 #사진촬영 #여행구독 #일몰명소 #친구와함께 #포항가볼만한곳 #포항여행 #한국관광100선,DC003,P019,36.0677158387722,129.393047439315,LC006,"WT001, WT002, WT003, WT004, WT005","VW001, VW002, VW003, VW004, VW005, VW008","AC002, AC003, AC004, AC005, AC006"
19,3,영일대해수욕장,경상북도 포항시 북구 해안로 95,#관광지 #바다풍경 #여름피서지 #여름휴가 #영일대해수욕장 #자연 #자연속으로 #자연여행 #자연좋은곳 #자연환경 #친구와함께,DC003,P020,36.0572951509316,129.377880175355,LC006,"WT001, WT002, WT003, WT004, WT005","VW001, VW002, VW003, VW004, VW005, VW008","AC002, AC003, AC004, AC005, AC006"
20,4,포항 죽도시장,경상북도 포항시 북구 죽도시장13길 13 포항수산종합어시장,#2014 #2024_여행가는달과함께하는_발도장여행지 #경상권 #나들이 #먹거리 #쇼핑 #쇼핑 부문 #수상내역 #시장맛집 #전통시장 #전통시장투어 #포항죽도시장 #한국관광의별,DC003,P021,36.0364190592957,129.368141459116,LC006,"WT001, WT002, WT003, WT004, WT005","VW001, VW002, VW003, VW004, VW005, VW008","AC002, AC003, AC004, AC005, AC006"
21,5,송도해변(포항),경상북도 포항시 남구 운하로251번길 34-1,#가족여행 #관광지 #바다풍경 #송도해변 #아이와함께 #여름방학가볼만한곳 #여름여행 #여름휴가 #연인과함께 #자연 #친구와함께 #피서여행,DC003,P022,36.0482640218358,129.374323122135,LC006,"WT001, WT002, WT003, WT004, WT005","VW001, VW002, VW003, VW004, VW005, VW008","AC002, AC003, AC004, AC005, AC006"
22,6,포항운하,경상북도 포항시 남구 희망대로 1040,#19-20한국관광100선 #가족과함께 #가족여행 #경상권 #관광지 #나들이 #데이트장소 #바다풍경 #복합문화공간 #시티투어 #운하 #인생샷 #전망대 #전시관 #포항야경 #포항운하 #포항운하관 #포항크루즈,DC003,P023,36.0238726668353,129.377390362095,LC006,"WT001, WT002, WT003, WT004, WT005","VW001, VW002, VW003, VW004, VW005, VW008","AC002, AC003, AC004, AC005, AC006"
23,7,구룡포 일본인 가옥거리,경상북도 포항시 남구 구룡포읍 구룡포길 153-1,#2024_여행가는달과함께하는_발도장여행지 #걷기좋은길 #경상권 #관광지 #구룡포일본인가옥거리 #나홀로여행 #데이트코스 #사계절 #역사관광지 #역사문화재 #역사속 #역사속으로 #역사이야기 #역사탐방 #역사탐험 #연인과함께 #인생샷 #체험,DC003,P024,35.9905388592413,129.561599346426,LC006,"WT001, WT002, WT003, WT004, WT005","VW001, VW002, VW003, VW004, VW005, VW008","AC002, AC003, AC004, AC005, AC006"
24,8,포항 독수리바위,경상북도 포항시 남구 호미곶면 구만길 226,#관광지 #바다경치 #바다내음 #자연발생 #자연속으로 #자연여행 #자연좋은곳 #자연풍경 #자연환경,DC003,P025,36.084895621346,129.557191481132,LC006,"WT001, WT002, WT003, WT004, WT005","VW001, VW002, VW003, VW004, VW005, VW008","AC002, AC003, AC004, AC005, AC006"
25,9,호미곶 해맞이광장,경상북도 포항시 남구 호미곶면 해맞이로150번길 20,#2024_여행가는달과함께하는_발도장여행지 #경상권 #경치좋은곳 #관광지 #기념관 #바다경치 #바다풍경 #사진찍기 #사진찍기좋은곳 #상생의손 #아이와함께 #일출명소 #일출일몰명소 #자연환경 #해맞이 #호미곶 #호미곶해맞이광장,DC003,P026,36.0778379128621,129.568256453096,LC006,"WT001, WT002, WT003, WT004, WT005","VW001, VW002, VW003, VW004, VW005, VW008","AC002, AC003, AC004, AC005, AC006"
26,10,구룡포과메기문화관,경상북도 포항시 남구 구룡포읍 구룡포길117번길 28-8,#가족과함께 #과메기문화관 #문화시설 #아이와함께,DC003,P027,35.9927403032825,129.561799281657,LC006,"WT001, WT002, WT003, WT004, WT005","VW001, VW002, VW003, VW004, VW005, VW008","AC002, AC003, AC004, AC005, AC006"
27,1,삼척항 - 새천년도로변,강원특별자치도 삼척시 삼척항길 196,#레포츠 #밀레니엄도로 #삼척드라이브길 #삼척여행 #삼척해수욕장 #새천년도로 #영화외출 #해안드라이브,DC004,P028,37.436187926718,129.188160340913,LC002,"WT001, WT002, WT003, WT004, WT005","VW001, VW003","AC001, AC002, AC003, AC004, AC005"
28,2,"삼척 중앙시장 (2, 7일)",강원특별자치도 삼척시 중앙로 10-1,#가족여행 #강원권 #기차여행 #나들이 #나홀로여행 #먹거리 #삼척시장 #삼척중앙시장 #새벽시장 #서울근교여행 #쇼핑 #시장맛집 #아이와함께 #연인과함께 #재래시장 #전통시장 #전통시장투어 #친구와함께,DC004,P029,37.4307771234014,129.178555709218,LC002,"WT001, WT002, WT003, WT004, WT005","VW001, VW003","AC001, AC002, AC003, AC004, AC005"
29,3,삼척 덕풍계곡마을,강원특별자치도 삼척시 가곡면 풍곡안길 17-18,#관광지 #농촌마을 #농촌여행 #산책하기좋은곳 #여름피서지 #자연관광지 #자연마을 #자연좋은곳 #자연환경 #체험 #휴식공간 #휴식여행 #휴식하기 #휴식하기좋은곳,DC004,P030,37.1246637709361,129.155968542953,LC002,"WT001, WT002, WT003, WT004, WT005","VW001, VW003","AC001, AC002, AC003, AC004, AC005"
30,4,덕풍계곡,강원특별자치도 삼척시 가곡면 덕풍길 44,#강원권 #강원삼척트레킹 #계곡 #계곡트레킹 #관광지 #덕풍계곡마을 #덕풍계곡트레킹 #삼척계곡 #여름방학 #여름방학가볼만한곳 #자연 #피서,DC004,P031,37.12224076412,129.158367440869,LC002,"WT001, WT002, WT003, WT004, WT005","VW001, VW003","AC001, AC002, AC003, AC004, AC005"
31,5,덕풍계곡 트레킹,강원특별자치도 삼척시 가곡면 풍곡리,#가족여행 #강원권 #레포츠 #삼척여행 #여름가볼만한곳 #여름여행 #트레킹,DC004,P032,37.089033331712,129.163426186393,LC002,"WT001, WT002, WT003, WT004, WT005","VW001, VW003","AC001, AC002, AC003, AC004, AC005"
32,6,삼척초당굴,강원특별자치도 삼척시 근덕면 금계리,#강원권 #관광지 #동굴 #미세먼지탈출_이색동굴여행 #수직동굴 #이색동굴여행 #자연 #천연기념물,DC004,P033,37.3960605898253,129.181112364337,LC002,"WT001, WT002, WT003, WT004, WT005","VW001, VW003","AC001, AC002, AC003, AC004, AC005"
33,1,송지호 해수욕장,강원특별자치도 고성군 죽왕면 심층수길 85,#강원권 #강원도해수욕장 #관광지 #바다내음 #바다풍경 #송지호해수욕장 #여름여행 #자연 #친구와함께 #해수욕 #휴식공간 #휴식여행 #휴식하기좋은곳 #휴양여행 #힐링 #힐링여행,DC005,P034,38.3314818425851,128.526533118031,LC002,"WT001, WT002, WT003, WT004","VW001, VW002, VW003","AC001, AC004"
34,2,이사부길(새천년해안도로),강원특별자치도 삼척시 새천년도로 61-18,#2024_여행가는달과함께하는_발도장여행지 #경치좋은곳 #관광지 #드라이브여행 #드라이브코스 #바다경치 #바다내음 #바다전망 #바다풍경 #연인과함께 #자연여행 #자연좋은곳 #자연풍경 #자연환경 #친구와함께 #해안드라이브,DC005,P035,37.4392643625405,129.187977232141,LC002,"WT001, WT002, WT003, WT004","VW001, VW002, VW003","AC001, AC004"
35,3,"장호해수욕장(장호항, 장호해변)",강원특별자치도 삼척시 근덕면 장호리,#강원_가볼만한곳 #강원권 #강원도_여행지_추천 #관광지 #낚시 #바다 #바다내음 #바다풍경여행 #산불피해지역 #여름피서지 #자연 #장호해변 #체험,DC005,P036,37.2729889714872,129.310409450271,LC002,"WT001, WT002, WT003, WT004","VW001, VW002, VW003","AC001, AC004"
36,4,삼척 해양레일바이크,강원특별자치도 삼척시 근덕면 공양왕길 2,#가족과함께 #강원권 #꿀잼_액티비티 #레포츠 #문화관광자원 부문 #바다풍경 #삼척레포츠 #삼척해양레일바이크 #수상내역 #아이와함께 #연인과함께 #이색체험 #한국관광의별 #해양레일바이크 #해저터널,DC005,P037,37.3236492428741,129.266364805493,LC002,"WT001, WT002, WT003, WT004","VW001, VW002, VW003","AC001, AC004"
37,1,송지호 해수욕장,강원특별자치도 고성군 죽왕면 심층수길 85,#강원권 #강원도해수욕장 #관광지 #바다내음 #바다풍경 #송지호해수욕장 #여름여행 #자연 #친구와함께 #해수욕 #휴식공간 #휴식여행 #휴식하기좋은곳 #휴양여행 #힐링 #힐링여행,DC006,P038,38.3314818425851,128.526533118031,LC002,"WT001, WT002, WT003, WT004","VW001, VW002, VW003, VW004, VW006","AC001, AC002, AC004, AC006"
38,2,백담사,강원특별자치도 인제군 백담로 746 백담사,#가족과함께 #강원권 #관광지 #내설악 #문화관광해설사 #불교 #불교문화 #사찰여행 #역사 #역사관광지 #연중무휴 #오세암 #인제여행 #자연환경 #전통사찰 #종교 #친구와함께 #템플스테이 #한국불교 #휴식공간 #휴식여행 #휴식하기 #휴식하기좋은곳,DC006,P039,38.1643044748974,128.374119290617,LC002,"WT001, WT002, WT003, WT004","VW001, VW002, VW003, VW004, VW006","AC001, AC002, AC004, AC006"
39,3,인제스피디움리조트 서킷,강원특별자치도 인제군 기린면 상하답로 130,#레이싱 #레포츠 #이색체험 #인제스피디움리조트,DC006,P040,38.0026073029496,128.295384285256,LC002,"WT001, WT002, WT003, WT004","VW001, VW002, VW003, VW004, VW006","AC001, AC002, AC004, AC006"
40,4,평화의댐(화천),강원특별자치도 화천군 화천읍 평화로 3481-18,#가족여행 #강원권 #관광지 #아이와함께 #자연 #평화의댐 #화천가볼만한곳,DC006,P041,38.2136611859135,127.846159229875,LC002,"WT001, WT002, WT003, WT004","VW001, VW002, VW003, VW004, VW006","AC001, AC002, AC004, AC006"
41,5,고석정 꽃밭,강원특별자치도 철원군 동송읍 태봉로 1769,#고석정 #관광지 #구절초 #꽃밭 #맨드라미 #백일홍 #사진찍기좋은곳 #철원가볼만한곳 #코스모스 #해바라기,DC006,P042,38.1882273230829,127.295506161815,LC002,"WT001, WT002, WT003, WT004","VW001, VW002, VW003, VW004, VW006","AC001, AC002, AC004, AC006"
42,6,아야진해변,강원특별자치도 고성군 토성면 아야진해변길 157,#가족여행 #강원_가볼만한곳 #강원권 #강원도_여행지_추천 #관광지 #바다풍경 #바다풍경여행 #아야진해변 #여름여행 #연인과함께 #자연 #자연좋은곳 #친구와함께 #피서여행 #휴식공간 #휴식여행 #휴식하기 #휴식하기좋은곳,DC006,P043,38.2765191847584,128.55276096923,LC002,"WT001, WT002, WT003, WT004","VW001, VW002, VW003, VW004, VW006","AC001, AC002, AC004, AC006"
43,7,철원 노동당사,강원특별자치도 철원군 철원읍 금강산로 265,#강원권 #강원도_여행지_추천 #관광지 #노동당사 #역사 #역사공부 #역사관광지 #역사를품은곳 #역사문화재 #역사속 #역사속으로 #역사여행 #역사유적 #역사유적지 #역사이야기 #역사탐험,DC006,P044,38.2552009441858,127.202000967047,LC002,"WT001, WT002, WT003, WT004","VW001, VW002, VW003, VW004, VW006","AC001, AC002, AC004, AC006"
44,8,해산전망대,강원특별자치도 화천군 화천읍 동촌리 산11-7,#경치좋은곳 #관광지 #산책길 #산책하기 #산책하기좋은곳 #자연속으로 #자연여행 #자연좋은곳 #자연풍경 #자연환경 #휴식공간 #휴식여행 #휴식하기 #휴식하기좋은곳,DC006,P045,38.1905004135509,127.816928076441,LC002,"WT001, WT002, WT003, WT004","VW001, VW002, VW003, VW004, VW006","AC001, AC002, AC004, AC006"
45,1,춘천인형극장&인형극박물관,강원특별자치도 춘천시 영서로 3017,#가족과함께 #극장 #문화시설 #상설공연 #소품전시 #아이와함께 #인형극장 #춘천여행,DC007,P046,37.9209224402127,127.720107583956,LC002,"WT001, WT002","VW001, VW002, VW003, VW004","AC001, AC002, AC004"
46,2,소양강처녀상,강원특별자치도 춘천시 영서로 2675,#강원권 #관광지 #소양강처녀상 #연중무휴,DC007,P047,37.8934276815185,127.724325847556,LC002,"WT001, WT002","VW001, VW002, VW003, VW004","AC001, AC002, AC004"
47,3,춘천인형극장&인형극박물관,강원특별자치도 춘천시 영서로 3017,#가족과함께 #극장 #문화시설 #상설공연 #소품전시 #아이와함께 #인형극장 #춘천여행,DC007,P048,37.9209224402127,127.720107583956,LC002,"WT001, WT002","VW001, VW002, VW003, VW004","AC001, AC002, AC004"
48,4,강원특별자치도립화목원,강원특별자치도 춘천시 화목원길 24,#가족여행 #강원권 #강원도립화목원 #관광지 #꽃여행 #박물관 #수목원 #아이와함께 #자연 #자연좋은곳,DC007,P049,37.9226444575207,127.725155972564,LC002,"WT001, WT002","VW001, VW002, VW003, VW004","AC001, AC002, AC004"
49,5,소양강처녀상,강원특별자치도 춘천시 영서로 2675,#강원권 #관광지 #소양강처녀상 #연중무휴,DC007,P050,37.8934276815185,127.724325847556,LC002,"WT001, WT002","VW001, VW002, VW003, VW004","AC001, AC002, AC004"
50,6,제이드가든,강원특별자치도 춘천시 남산면 햇골길 80,#2024_여행가는달과함께하는_발도장여행지 #강원권 #강원도_여행지_추천 #강원도가볼만한곳 #관광지 #드라마촬영지 #수목원 #연중무휴 #자연 #제이드가든수목원 #힐링여행,DC007,P051,37.8327469495872,127.542140775057,LC002,"WT001, WT002","VW001, VW002, VW003, VW004","AC001, AC002, AC004"
51,7,제이드가든,강원특별자치도 춘천시 남산면 햇골길 80,#2024_여행가는달과함께하는_발도장여행지 #강원권 #강원도_여행지_추천 #강원도가볼만한곳 #관광지 #드라마촬영지 #수목원 #연중무휴 #자연 #제이드가든수목원 #힐링여행,DC007,P052,37.8327469495872,127.542140775057,LC002,"WT001, WT002","VW001, VW002, VW003, VW004","AC001, AC002, AC004"
52,8,강원특별자치도립화목원,강원특별자치도 춘천시 화목원길 24,#가족여행 #강원권 #강원도립화목원 #관광지 #꽃여행 #박물관 #수목원 #아이와함께 #자연 #자연좋은곳,DC007,P053,37.9226444575207,127.725155972564,LC002,"WT001, WT002","VW001, VW002, VW003, VW004","AC001, AC002, AC004"
53,9,의암호,강원특별자치도 춘천시 신동면 옛경춘로 114,#경치여행 #경치좋은곳 #낚시 #둘레길 #레고랜드 #레포츠 #붕어 #산책로 #산책하기좋은곳 #얼음낚시 #의암스카이워크 #자전거길 #케이블카 #힐링산책,DC007,P054,37.8374109121196,127.677403902317,LC002,"WT001, WT002","VW001, VW002, VW003, VW004","AC001, AC002, AC004"
54,10,의암호,강원특별자치도 춘천시 신동면 옛경춘로 114,#경치여행 #경치좋은곳 #낚시 #둘레길 #레고랜드 #레포츠 #붕어 #산책로 #산책하기좋은곳 #얼음낚시 #의암스카이워크 #자전거길 #케이블카 #힐링산책,DC007,P055,37.8374109121196,127.677403902317,LC002,"WT001, WT002","VW001, VW002, VW003, VW004","AC001, AC002, AC004"
55,1,파주 DMZ 곤돌라,경기도 파주시 문산읍 임진각로 148-73,#곤돌라 #관광지 #파주 #파주임진각평화곤돌라 #평화,DC008,P056,37.8914503150005,126.740279546575,LC001,"WT001, WT002",VW004,"AC001, AC004"
56,2,파주 장단콩마을,경기도 파주시 군내면 통일촌길 64,#가족과함께 #관광지 #농촌마을 #농촌여행 #농촌체험마을 #농촌체험여행 #아이와함께 #체험 #체험프로그램 #휴식공간 #휴식여행 #휴식하기 #휴식하기좋은곳,DC008,P057,37.9106389800343,126.733603103531,LC001,"WT001, WT002",VW004,"AC001, AC004"
57,3,전곡선사박물관,경기도 연천군 전곡읍 평화로443번길 2,#가족여행 #고고학 #고고학체험 #문화시설 #박물관 #선사박물관 #수도권 #아이와함께 #이색체험 #전곡선사박물관 #전시 #전시관,DC008,P058,38.0106949771142,127.061657458611,LC001,"WT001, WT002",VW004,"AC001, AC004"
58,4,임진강댑싸리공원,경기도 연천군 중면 삼곶리,#2024_여행가는달과함께하는_발도장여행지 #가을추천명소 #관광지 #꽃구경 #꽃구경 #댑싸리공원 #연천가볼만한곳 #연천가볼만한곳 #임진강댑싸리공원,DC008,P059,38.1370138655657,127.01874327138,LC001,"WT001, WT002",VW004,"AC001, AC004"
59,1,안산문화원,경기도 안산시 상록구 석호로 144,#가족여행 #경기권 #무장애 #문화시설 #서울근교여행 #안산문화원 #안산문화학교 #안산민속체험 #안산박물관 #안산시 #안산향토사박물관 #전통문화체험 #지역문화학교 #향토유물전시,DC009,P060,37.2993256853712,126.847631726672,LC001,"WT001, WT002, WT003, WT004","VW001, VW004","AC002, AC004, AC006"
60,2,경기도미술관,경기도 안산시 단원구 동산로 268,#경기도미술관 #남녀노소 #문화시설 #문화예술 #미술관 #미술작품 #복합문화공간 #수도권 #실내관광지 #연인과함께 #열린문화공간 #예술 #전시 #전시/공연 #친구와함께 #현대미술,DC009,P061,37.3250627276111,126.809955311616,LC001,"WT001, WT002, WT003, WT004","VW001, VW004","AC002, AC004, AC006"
61,3,안산갈대습지공원,경기도 안산시 상록구 갈대습지로 76,#가족과함께 #갈대밭데이트코스 #걷기길 #관광지 #데이트코스 #생태관광 #생태자료전시 #수도권 #시화호 #아이와함께 #안산갈대습지공원 #안산공원 #안산체험교육 #연인과함께 #인공습지 #인생샷 #자연,DC009,P062,37.2737227465741,126.839755313316,LC001,"WT001, WT002, WT003, WT004","VW001, VW004","AC002, AC004, AC006"
62,4,최용신기념관,경기도 안산시 상록구 샘골서길 64,#교과서속여행 #근대문화유산 #기념관 #문화시설 #수도권 #애국계몽 #애국심 #애국정신 #역사공부 #역사를품은곳 #역사속 #역사속으로 #역사이야기 #역사탐방 #역사탐험 #체험학습 #최용신기념관,DC009,P063,37.2996184754943,126.862764913936,LC001,"WT001, WT002, WT003, WT004","VW001, VW004","AC002, AC004, AC006"
63,5,성호박물관,경기도 안산시 상록구 성호로 131,#가족과함께 #교육여행 #기념관 #무장애 #문화시설 #박물관 #서울근교여행 #성호기념관 #아이와함께 #유물 #이익,DC009,P064,37.3150752328576,126.859577409527,LC001,"WT001, WT002, WT003, WT004","VW001, VW004","AC002, AC004, AC006"
64,1,백운사(의왕),경기도 의왕시 왕곡로 323,#경치좋은곳 #관광지 #백운산등산코스 #불교 #불교문화 #사찰 #사찰여행 #수도권 #역사 #의왕가볼만한곳 #의왕백운사 #의왕사찰 #자연속으로 #자연환경 #전통사찰 #종교 #한국불교 #휴식공간 #휴식여행 #휴식하기 #휴식하기좋은곳,DC010,P065,37.3499054915944,127.00788604023,LC001,WT002,"VW001, VW002, VW004, VW006","AC001, AC002, AC005"
65,2,송이향한정식,경기도 의왕시 백운로 413,#가족과함께 #간장게장_정식 #더덕구이정식 #맛집 #백암호수 #보리굴비 #불고기정식 #송이향 #송코스 #수도권 #음식 #의왕가볼만한곳 #의왕맛집 #의왕송이향 #의왕시 #의왕한정식 #쭈꾸미볶음_정식 #한식 #한정식,DC010,P066,37.3757798958185,127.002317218207,LC001,WT002,"VW001, VW002, VW004, VW006","AC001, AC002, AC005"
66,3,백운호수,경기도 의왕시 백운로 526,#경치좋은곳 #관광지 #백운사 #백운호수 #수도권 #의왕 #의왕가볼만한곳 #의왕백운사 #의왕사찰 #자연 #호수 #휴양여행 #힐링,DC010,P067,37.3832117467149,127.00075765292,LC001,WT002,"VW001, VW002, VW004, VW006","AC001, AC002, AC005"
67,4,하우현성당,경기도 의왕시 원터아랫길 81-6,#관광지 #교우촌 #문화관광해설사 #수도권 #역사 #역사공부 #역사관광지 #역사를품은곳 #역사문화재 #역사속 #역사속으로 #역사여행 #역사유적 #역사유적지 #역사이야기 #역사탐방 #역사탐험 #의왕8경 #의왕경치좋은곳 #의왕하우현성당 #의왕하우현성당사제관 #종교 #천주교 #천주교성지 #천주교성지순례 #피난처 #하우현성당 #하우현성당사제관,DC010,P068,37.3959762318847,127.023736739476,LC001,WT002,"VW001, VW002, VW004, VW006","AC001, AC002, AC005"
68,5,청계사(경기),경기도 의왕시 청계로 475,#관광지 #문화관광해설사 #사찰 #수도권 #역사 #우담바라꽃 #우담바라사찰 #의왕경치좋은곳 #의왕사찰 #의왕청계사 #의왕추천여행지 #청계산사찰,DC010,P069,37.4120684951383,127.034875225965,LC001,WT002,"VW001, VW002, VW004, VW006","AC001, AC002, AC005"
69,1,영진해변,강원특별자치도 강릉시 주문진읍 해안로 1609,#강원권 #관광지 #바다경치 #바다내음 #바다풍경 #여름여행 #여름휴가 #연중무휴 #영진해변 #자연 #해변 #휴식공간 #휴식여행 #휴식하기좋은곳,DC011,P070,37.8795534915402,128.833557121069,LC002,"WT001, WT002","VW001, VW002, VW003, VW004","AC001, AC005"
70,2,성진회관,강원특별자치도 고성군 거진읍 거탄진로 99,#강원맛집 #맛집 #명태요리 #생태찌개 #성진회관 #연중무휴 #음식,DC011,P071,38.4440896937092,128.453343216118,LC002,"WT001, WT002","VW001, VW002, VW003, VW004","AC001, AC005"
71,3,대진 등대,강원특별자치도 고성군 현내면 한나루로4길 16-38,#강원권 #강원도경치좋은곳 #경치여행 #경치좋은곳 #관광지 #대진등대 #동해여행 #등대 #무인등대 #바다경치 #바다내음 #자연 #풍경,DC011,P072,38.5037560840299,128.428733864322,LC002,"WT001, WT002","VW001, VW002, VW003, VW004","AC001, AC005"
72,4,청간정,강원특별자치도 고성군 토성면 동해대로 5110,#강원권 #강원도유형문화재 #경치좋은곳 #고성가볼만한곳 #관광지 #관동팔경 #교과서속여행 #역사 #역사공부 #역사를품은곳 #역사속 #역사속으로 #역사유적지 #역사이야기 #역사탐방 #역사탐험 #예능촬영지 #유적지 #청간정,DC011,P073,38.2643987706534,128.55837360986,LC002,"WT001, WT002","VW001, VW002, VW003, VW004","AC001, AC005"
73,5,고성 통일전망타워,강원특별자치도 고성군 현내면 금강산로 481,#가족과함께 #강원권 #고성가볼만한곳 #고성통일전망대 #관광지 #교과서속여행 #아이와함께 #안보 #안보관광 #안보여행 #역사공부 #역사속으로 #역사이야기 #연중무휴 #전망대 #전쟁역사 #통일전망대 #통일전망대(고성) #한국전쟁,DC011,P074,38.5144187175158,128.416656703129,LC002,"WT001, WT002","VW001, VW002, VW003, VW004","AC001, AC005"
74,1,조양방직,인천광역시 강화군 강화읍 향나무길5번길 12,#2024_여행가는달과함께하는_발도장여행지 #SNS속_인생샷명소 #데이트 #레트로 #레트로여행 #연인과함께 #음식 #인생샷 #조양방직 #친구와함께 #커플데이트,DC012,P075,37.7467787566069,126.480970774647,LC001,"WT001, WT002, WT003, WT004",VW004,"AC004, AC005, AC006"
75,2,라베니체광장,경기도 김포시 태장로 810,#SNS지원단 #관광지 #김포시 #라베니체 #수변공원,DC012,P076,37.637564080956,126.677341908204,LC001,"WT001, WT002, WT003, WT004",VW004,"AC004, AC005, AC006"
76,3,김포 장릉(인헌왕후) [유네스코 세계유산],경기도 김포시 장릉로 79,#2024_여행가는달과함께하는_발도장여행지 #가족여행 #관광지 #교과서속여행 #김포가볼만한곳 #김포장릉 #아이와함께 #역사 #역사공부 #역사관광지 #역사를품은곳 #역사문화재 #역사속으로 #역사유적 #역사유적지 #역사탐방 #유네스코세계문화유산 #인헌왕후 #전통&역사문화체험 #조선왕릉 #친구와함께,DC012,P077,37.6107518993992,126.712658300211,LC001,"WT001, WT002, WT003, WT004",VW004,"AC004, AC005, AC006"
77,1,원대리 자작나무 숲 (속삭이는 자작나무 숲),강원특별자치도 인제군 인제읍 자작나무숲길 760,#2024_여행가는달과함께하는_발도장여행지 #21_22한국관광100선 #23_24한국관광100선 #SNS속_인생샷명소 #가족여행 #강원권 #겨울가볼만한곳 #경치좋은곳 #관광지 #숙박대전_가볼만한곳 #숙박대전_추천기사 #원대리사진맛집 #원대리자작나무숲 #인생샷 #인제자작나무숲 #인제포토스팟 #자연 #자작나무숲 #한국관광100선,DC013,P078,38.0092057134613,128.194290340012,LC002,WT002,"VW001, VW002, VW004, VW006","AC001, AC002, AC004, AC005, AC006"
78,2,화암사(고성),강원특별자치도 고성군 토성면 화암사길 100,#2024_여행가는달과함께하는_발도장여행지 #가족과함께 #강원권 #고성화암사 #관광지 #불교 #불교문화 #불교사찰 #사찰 #사찰여행 #역사 #연중개방 #자연환경 #전통차 #종교 #한국불교 #화암사 #휴식공간 #휴식여행 #휴식하기 #휴식하기좋은곳,DC013,P079,38.2263035536854,128.471142957894,LC002,WT002,"VW001, VW002, VW004, VW006","AC001, AC002, AC004, AC005, AC006"
79,3,해산전망대,강원특별자치도 화천군 화천읍 동촌리 산11-7,#경치좋은곳 #관광지 #산책길 #산책하기 #산책하기좋은곳 #자연속으로 #자연여행 #자연좋은곳 #자연풍경 #자연환경 #휴식공간 #휴식여행 #휴식하기 #휴식하기좋은곳,DC013,P080,38.1905004135509,127.816928076441,LC002,WT002,"VW001, VW002, VW004, VW006","AC001, AC002, AC004, AC005, AC006"
80,4,인제스피디움리조트 서킷,강원특별자치도 인제군 기린면 상하답로 130,#레이싱 #레포츠 #이색체험 #인제스피디움리조트,DC013,P081,38.0026073029496,128.295384285256,LC002,WT002,"VW001, VW002, VW004, VW006","AC001, AC002, AC004, AC005, AC006"
81,5,한반도섬,강원특별자치도 양구군 양구읍 한반도섬길 76,#관광지 #양구가볼만한곳 #한반도섬,DC013,P082,38.1306141932488,127.982762831123,LC002,WT002,"VW001, VW002, VW004, VW006","AC001, AC002, AC004, AC005, AC006"
82,1,하조대,강원특별자치도 양양군 현북면 하조대해안길 29,#관광지,DC014,P083,38.0224880651102,128.724933814868,LC002,"WT001, WT002, WT003, WT004","VW001, VW004, VW006","AC001, AC002, AC003, AC004, AC005, AC006"
83,2,"서피비치, 서핑(양양)",강원특별자치도 양양군 현북면 하조대해안길 119,#2020 #2020한국관광의별 #강원권 #강원권반려동물여행지 #꿀잼_액티비티 #레포츠 #반려동물동반여행지 #서피비치 #서핑 #캠핑 #한국관광의별 #해변가,DC014,P084,38.0277534804076,128.717521171416,LC002,"WT001, WT002, WT003, WT004","VW001, VW004, VW006","AC001, AC002, AC003, AC004, AC005, AC006"
84,3,낙산사,강원특별자치도 양양군 강현면 낙산사로 100,#2024_여행가는달과함께하는_발도장여행지 #가족여행 #강원권 #강원도_여행지_추천 #관광지 #기차여행 #나들이 #낙산사 #동해여행 #사찰&산사 #서울근교여행 #아이와함께 #양양여행 #양양여행지추천 #역사 #자연좋은곳 #전통&역사문화체험 #체험학습 #친구와함께 #템플스테이,DC014,P085,38.1245691613212,128.630163648893,LC002,"WT001, WT002, WT003, WT004","VW001, VW004, VW006","AC001, AC002, AC003, AC004, AC005, AC006"
85,1,대포항,강원특별자치도 속초시 대포항길 64,#가족여행 #강원권 #관광지 #나들이 #대포항 #데이트코스 #바다풍경 #아이와함께 #여름여행 #연인과함께 #자연 #자연좋은곳 #체험학습 #친구와함께 #힐링,DC015,P086,38.1749711422915,128.60748306796,LC002,"WT001, WT002, WT003, WT004, WT005","VW001, VW002, VW003","AC001, AC003, AC004"
86,2,영금정,강원특별자치도 속초시 동명항길 35,#2024_여행가는달과함께하는_발도장여행지 #강원권 #경치좋은곳 #관광지 #나들이 #바다낚시 #바다풍경 #야간관광100선 #영금정 #자연좋은곳 #전망좋은곳 #피서여행 #해돋이명소 #해상정자 #해안절경,DC015,P087,38.2121070424096,128.597344846395,LC002,"WT001, WT002, WT003, WT004, WT005","VW001, VW002, VW003","AC001, AC003, AC004"
87,3,영랑호,강원특별자치도 속초시 영랑호반길 140,#강원도_여행지_추천 #관광지 #나홀로여행 #문화관광해설사 #생태관광지 #영랑호 #자연 #휴양여행 #힐링 #힐링여행,DC015,P088,38.2142296232005,128.58078554268,LC002,"WT001, WT002, WT003, WT004, WT005","VW001, VW002, VW003","AC001, AC003, AC004"
88,4,속초해수욕장,강원특별자치도 속초시 해오름로 190,#가족여행 #강원권 #관광지 #기차여행 #나들이 #당일치기여행 #데이트코스 #바다풍경 #서울근교여행 #속초해변 #아이와함께 #여름방학가볼만한곳 #여름여행 #연인과함께 #일출일몰명소 #자연 #자연좋은곳 #체험학습 #친구와함께 #힐링,DC015,P089,38.1905709826187,128.602024647419,LC002,"WT001, WT002, WT003, WT004, WT005","VW001, VW002, VW003","AC001, AC003, AC004"
89,1,구례구역,전라남도 순천시 황전면 섬진강로 217,#관광지 #구례입구 #순천기차역여행 #순천서원 #순천여행 #윤스테이촬영지 #전라남도여행,DC016,P090,35.163310650026,127.453153044419,LC007,"WT001, WT002","VW001, VW002, VW004","AC001, AC002, AC004, AC006"
90,2,침실습지,전라남도 곡성군 오곡면 오지2길 21-99,#경치좋은곳 #관광지 #사진여행 #사진찍기 #사진촬영 #사진촬영명소 #자연 #자연관광지 #자연발생 #자연속으로 #자연여행 #자연좋은곳 #자연체험 #자연풍경 #자연환경 #휴식공간 #휴식여행 #휴식하기 #휴식하기좋은곳,DC016,P091,35.2690162951131,127.326921106257,LC007,"WT001, WT002","VW001, VW002, VW004","AC001, AC002, AC004, AC006"
91,3,곡성역,전라남도 곡성군 곡성읍 곡성로 920,#관광지 #기차역 #섬진강기차마을 #성곽역사 #전남여행,DC016,P092,35.2836105383006,127.303695147064,LC007,"WT001, WT002","VW001, VW002, VW004","AC001, AC002, AC004, AC006"
92,4,섬진강기차마을,전라남도 곡성군 오곡면 기차마을로 232,#19_20한국관광100선 #2014 #2024_여행가는달과함께하는_발도장여행지 #23_24한국관광100선 #가족여행 #관광지 #기차여행 #섬진강기차마을 #수상내역 #야간관광100선 #이색열차 #장미여행지 #전라권 #창조관광 부문 #체험 #추억여행 #한국관광100선 #한국관광의별,DC016,P093,35.2775315721907,127.308286688106,LC007,"WT001, WT002","VW001, VW002, VW004","AC001, AC002, AC004, AC006"
93,5,압록유원지,전라남도 곡성군 죽곡면 섬진강로 1012,#가족과함께 #곡성압록유원지 #관광지 #산책코스 #산책하기좋은곳 #섬진강유원지 #섬진강차박 #압록강 #여름피서지 #여름휴가 #유원지 #전남압록유원지 #캠핑장 #커플데이트 #피서여행지 #휴식공간 #휴식하기좋은곳,DC016,P094,35.1919626880899,127.377512256741,LC007,"WT001, WT002","VW001, VW002, VW004","AC001, AC002, AC004, AC006"
94,6,곡성섬진강천문대,전라남도 구례군 구례읍 섬진강로 1234,#겨울방학가볼만한곳 #곡성섬진강천문대 #곡성천문관측소 #곡성천문대 #관광지 #구례여행 #구례천문대 #섬진강천문대 #아이와함께 #여름방학가볼만한곳 #자연 #전라권 #주말추천여행 #체험학습,DC016,P095,35.2266224751196,127.369189304448,LC007,"WT001, WT002","VW001, VW002, VW004","AC001, AC002, AC004, AC006"
95,1,상주은모래비치,경상남도 남해군 상주면 상주로 17,#가족여행 #관광지 #남해여행 #남해해수욕장 #바다풍경 #상주은모래비치 #아이와함께 #여름방학가볼만한곳 #여름여행 #여름휴가 #연인과함께 #은모래 #은모래비치 #자연 #친구와함께 #피서여행 #한려해상국립공원 #해수욕장,DC017,P096,34.7216222818227,127.988434607732,LC005,"WT001, WT002, WT003, WT004","VW001, VW002, VW003, VW004","AC001, AC002, AC004"
96,2,미조항,경상남도 남해군 미조면,#관광지 #남해 #바다 #자연,DC017,P097,34.7120206495288,128.046036616919,LC005,"WT001, WT002, WT003, WT004","VW001, VW002, VW003, VW004","AC001, AC002, AC004"
97,3,남해보물섬전망대,경상남도 남해군 삼동면 동부대로 720,#2024_여행가는달과함께하는_발도장여행지 #경치여행 #경치좋은곳 #관광지 #남해가볼만한곳 #바다경치 #보물섬전망대 #연인과함께 #이색체험 #익스트림스포츠 #전망대 #친구와함께 #휴식공간 #휴식여행,DC017,P098,34.7698293872598,128.053324367469,LC005,"WT001, WT002, WT003, WT004","VW001, VW002, VW003, VW004","AC001, AC002, AC004"
98,4,항도몽돌해수욕장과 항도방파제,경상남도 남해군 미조면 송정리,#관광지 #여름피서지 #자연 #자연관광지 #자연속으로 #자연여행 #자연좋은곳 #자연풍경 #자연환경 #항도몽돌해변 #항도몽돌해수욕장 #항도방파제 #휴식하기좋은곳,DC017,P099,34.7504859959708,128.042852075473,LC005,"WT001, WT002, WT003, WT004","VW001, VW002, VW003, VW004","AC001, AC002, AC004"
99,5,원천항,경상남도 남해군 이동면 신전리 1138-10,#관광지,DC017,P100,34.7629977216043,127.947654548936,LC005,"WT001, WT002, WT003, WT004","VW001, VW002, VW003, VW004","AC001, AC002, AC004"
100,6,남해 물건리 방조어부림,경상남도 남해군 삼동면 동부대로1030번길 59,#가족여행 #경상권 #경상남도여행 #경치좋은곳 #관광지 #남해관광 #남해산책길 #남해여행 #독일마을 #드라이브여행 #드라이브코스 #물건마을 #역사 #월출 #일출 #일출일몰명소 #자연 #자연유산 #자연좋은곳 #천연기념물 #해돋이명소,DC017,P101,34.7957567049395,128.050425544429,LC005,"WT001, WT002, WT003, WT004","VW001, VW002, VW003, VW004","AC001, AC002, AC004"
101,1,안도해변,전라남도 여수시 남면 안도해수욕장길 105,#관광지 #낚시 #바다 #안도해변 #여름피서지 #자연 #자연좋은곳 #자연환경 #전라권 #풍경좋은곳 #휴식여행 #힐링여행,DC018,P102,34.490475135032,127.812517032458,LC007,"WT002, WT003, WT005","VW001, VW002, VW003, VW004, VW006","AC001, AC002, AC005"
102,2,한려해상국립공원 (오동도),전라남도 여수시 오동도로 222,#21_22한국관광100선 #23_24한국관광100선 #가족여행 #걷기좋은곳 #관광지 #동백꽃 #동백열차 #바다풍경 #생태관광지 #섬여행 #여수가볼만한곳 #여수동백꽃명소 #여수동백섬 #여수여행 #여수오동도 #여수의상징 #연중무휴 #오동도 #오동도등대 #자연 #전라권 #전라남도여행 #한국관광100선 #휴양여행 #힐링,DC018,P103,34.7443617478229,127.764104097259,LC007,"WT002, WT003, WT005","VW001, VW002, VW003, VW004, VW006","AC001, AC002, AC005"
103,3,한솔횟집,전라남도 여수시 돌산읍 향일암로 122,#맛집 #여수맛집 #음식 #횟집,DC018,P104,34.5978147724911,127.80022903955,LC007,"WT002, WT003, WT005","VW001, VW002, VW003, VW004, VW006","AC001, AC002, AC005"
104,4,해금강유람선,경상남도 거제시 남부면 해금강로 270,"#거제가볼만한곳 #거제선상관광 #거제외도관람 #거제유람선 #관광지 #바다 #바다,섬 #바다전망 #바다풍경 #연인과함께 #우제봉 #유람선 #자연환경 #해금강 #힐링&여행 #힐링&휴양여행 #힐링&휴양여행",DC018,P105,34.737803119248,128.673190032312,LC005,"WT002, WT003, WT005","VW001, VW002, VW003, VW004, VW006","AC001, AC002, AC005"
105,5,금오도,전라남도 여수시 남면,#2020_휴가철찾아가고싶은_33섬 #2023찾아가고싶은섬 #2023찾아가고싶은섬_가을섬 #가족과함께 #경치여행 #경치좋은곳 #관광지 #금오도 #금오도비렁길 #다도해해상국립공원 #바다내음 #산책길 #섬여행 #자연 #자연마을 #자연여행 #자연좋은곳 #자연풍경 #자연환경 #휴식공간 #휴식여행 #휴식하기 #휴식하기좋은곳,DC018,P106,34.5089645965176,127.767526123981,LC007,"WT002, WT003, WT005","VW001, VW002, VW003, VW004, VW006","AC001, AC002, AC005"
106,6,향일암(여수),전라남도 여수시 돌산읍 향일암로 60,#15_16한국관광100선 #2023_설날_소원 #2024_여행가는달과함께하는_발도장여행지 #BTS #bts여행 #bts투어 #관광지 #관음기도도량 #나홀로여행 #바다풍경 #불교 #불교문화 #사찰 #사찰여행 #여수10경 #여수가볼만한곳 #여수사찰 #여수섬마을 #여수여행 #여수일출명소 #여수향일암 #역사 #영구암 #일출명소 #일출일몰명소 #자연환경 #전남 #전남권 #전라권 #전라남도여행 #전망좋은곳 #전통사찰 #종교 #한국관광100선 #한국불교 #향일암(여수) #휴식하기좋은곳 #힐링 #힐링여행,DC018,P107,34.5937941993736,127.802987946603,LC007,"WT002, WT003, WT005","VW001, VW002, VW003, VW004, VW006","AC001, AC002, AC005"
107,1,삼탄아트마인,강원특별자치도 정선군 고한읍 함백산로 1445-44,#가족체험여행 #강원권 #강원도_여행지_추천 #강원웰니스관광지 #관광지 #근대산업유산 #리모델링공간 #문화콘텐츠산업 #박물관 #복합문화공간 #산업관광 #산업관광지 #삼탄아트마인 #아이와함께 #역사공부 #역사속으로 #역사이야기 #역사탐험 #웰니스관광 #이색체험 #재생공간 #전시관 #정선웰니스관광 #체험학습 #친구와함께,DC019,P108,37.1850515002253,128.883521694438,LC002,"WT001, WT002, WT004","VW001, VW002, VW004, VW006","AC001, AC002, AC003, AC004"
108,2,검룡소 (강원고생대 국가지질공원),강원특별자치도 태백시 창죽동,#강원고생대 #강원고생대_국가지질공원 #검룡소 #경치좋은곳 #관광지 #국가지질공원 #자연 #자연관광지 #자연발생 #자연속으로 #자연여행 #자연좋은곳 #자연풍경 #자연환경 #지질공원 #지질명소 #태백산,DC019,P109,37.2334427302758,128.956898717214,LC002,"WT001, WT002, WT004","VW001, VW002, VW004, VW006","AC001, AC002, AC003, AC004"
109,3,정암사 수마노탑,강원특별자치도 정선군 고한읍 함백산로 1410,#가족여행 #강원권 #강원웰니스관광지 #관광지 #기차여행 #나들이 #당일치기여행 #사찰&산사 #서울근교여행 #수마노탑 #아이와함께 #역사 #웰니스관광 #자연좋은곳 #전통&역사문화체험 #정선웰니스관광 #정암사 #정암사수마노탑 #체험학습 #친구와함께 #힐링,DC019,P110,37.1830165620996,128.892560560817,LC002,"WT001, WT002, WT004","VW001, VW002, VW004, VW006","AC001, AC002, AC003, AC004"
110,4,검룡소 (강원고생대 국가지질공원),강원특별자치도 태백시 창죽동,#강원고생대 #강원고생대_국가지질공원 #검룡소 #경치좋은곳 #관광지 #국가지질공원 #자연 #자연관광지 #자연발생 #자연속으로 #자연여행 #자연좋은곳 #자연풍경 #자연환경 #지질공원 #지질명소 #태백산,DC019,P111,37.2334427302758,128.956898717214,LC002,"WT001, WT002, WT004","VW001, VW002, VW004, VW006","AC001, AC002, AC003, AC004"
111,5,사북 탄광문화관광촌,강원특별자치도 정선군 사북읍 하이원길 57-3,#강원권 #관광지 #교육여행 #근대산업유산 #사북탄광 #사북탄광문화관광촌 #산업관광 #산업관광지 #석탄유물보존관 #아이와함께 #역사속으로 #역사이야기 #이색체험 #전시관 #체험프로그램 #체험학습 #탄광문화관광촌 #탄광촌,DC019,P112,37.2208846598005,128.815723100537,LC002,"WT001, WT002, WT004","VW001, VW002, VW004, VW006","AC001, AC002, AC003, AC004"
112,6,삼탄아트마인,강원특별자치도 정선군 고한읍 함백산로 1445-44,#가족체험여행 #강원권 #강원도_여행지_추천 #강원웰니스관광지 #관광지 #근대산업유산 #리모델링공간 #문화콘텐츠산업 #박물관 #복합문화공간 #산업관광 #산업관광지 #삼탄아트마인 #아이와함께 #역사공부 #역사속으로 #역사이야기 #역사탐험 #웰니스관광 #이색체험 #재생공간 #전시관 #정선웰니스관광 #체험학습 #친구와함께,DC019,P113,37.1850515002253,128.883521694438,LC002,"WT001, WT002, WT004","VW001, VW002, VW004, VW006","AC001, AC002, AC003, AC004"
113,7,함백산,강원특별자치도 태백시 혈동,#강원권 #경치여행 #경치좋은곳 #관광지 #등산 #새해맞이 #자연 #자연속으로 #함백산 #휴식하기좋은곳 #힐링여행,DC019,P114,37.1175655529061,128.909509420756,LC002,"WT001, WT002, WT004","VW001, VW002, VW004, VW006","AC001, AC002, AC003, AC004"
114,8,함백산,강원특별자치도 태백시 혈동,#강원권 #경치여행 #경치좋은곳 #관광지 #등산 #새해맞이 #자연 #자연속으로 #함백산 #휴식하기좋은곳 #힐링여행,DC019,P115,37.1175655529061,128.909509420756,LC002,"WT001, WT002, WT004","VW001, VW002, VW004, VW006","AC001, AC002, AC003, AC004"
115,9,사북 탄광문화관광촌,강원특별자치도 정선군 사북읍 하이원길 57-3,#강원권 #관광지 #교육여행 #근대산업유산 #사북탄광 #사북탄광문화관광촌 #산업관광 #산업관광지 #석탄유물보존관 #아이와함께 #역사속으로 #역사이야기 #이색체험 #전시관 #체험프로그램 #체험학습 #탄광문화관광촌 #탄광촌,DC019,P116,37.2208846598005,128.815723100537,LC002,"WT001, WT002, WT004","VW001, VW002, VW004, VW006","AC001, AC002, AC003, AC004"
116,10,정암사 수마노탑,강원특별자치도 정선군 고한읍 함백산로 1410,#가족여행 #강원권 #강원웰니스관광지 #관광지 #기차여행 #나들이 #당일치기여행 #사찰&산사 #서울근교여행 #수마노탑 #아이와함께 #역사 #웰니스관광 #자연좋은곳 #전통&역사문화체험 #정선웰니스관광 #정암사 #정암사수마노탑 #체험학습 #친구와함께 #힐링,DC019,P117,37.1830165620996,128.892560560817,LC002,"WT001, WT002, WT004","VW001, VW002, VW004, VW006","AC001, AC002, AC003, AC004"
117,1,월송정,경상북도 울진군 평해읍 월송정로 517,#관광지 #관동팔경 #역사 #역사공부 #역사관광지 #역사를품은곳 #역사문화재 #역사속 #역사속으로 #역사유적 #역사유적지 #역사이야기 #역사탐방 #역사탐험 #울진여행 #일출일몰명소,DC020,P118,36.7438305963348,129.468713303276,LC006,"WT002, WT003","VW001, VW002, VW003, VW004, VW007","AC001, AC002"
118,2,망양정,경상북도 울진군 근남면 산포리,#가족여행 #경상권 #경치좋은곳 #관광지 #관동팔경 #망양해수욕장 #문화재 #역사 #역사공부 #역사를품은곳 #역사속 #역사속으로 #역사여행 #역사이야기 #역사탐방 #역사탐험 #자연환경,DC020,P119,36.9523831422733,129.40576229698,LC006,"WT002, WT003","VW001, VW002, VW003, VW004, VW007","AC001, AC002"
119,3,등기산스카이워크,경상북도 울진군 후포면 후포리,#2024_여행가는달과함께하는_발도장여행지 #가족과함께 #경치여행 #경치좋은곳 #관광지 #구름다리 #등기산 #등기산공원 #바다경치 #바다내음 #산책코스 #스카이워크 #연인과함께 #전망대 #휴식공간 #휴식여행 #휴식하기좋은곳,DC020,P120,36.6918636021057,129.446685561923,LC006,"WT002, WT003","VW001, VW002, VW003, VW004, VW007","AC001, AC002"
120,4,울진 후포항,경상북도 울진군 후포면 등기산길 29,#2024_여행가는달과함께하는_발도장여행지 #경상권 #관광지 #등기산 #울진가볼만한곳 #울진여행 #자연 #후포등대 #후포항 #후포해수욕장,DC020,P121,36.6807872075426,129.461918576948,LC006,"WT002, WT003","VW001, VW002, VW003, VW004, VW007","AC001, AC002"
121,5,후포해수욕장,경상북도 울진군 후포면 삼율리,#가족여행 #경상권 #관광지 #바다풍경 #여름여행 #울진여행 #울진해수욕장 #자연 #피서여행 #후포등대 #후포항,DC020,P122,36.687836722481,129.427765453558,LC006,"WT002, WT003","VW001, VW002, VW003, VW004, VW007","AC001, AC002"
122,1,변산해수욕장,전북특별자치도 부안군 변산면 변산로 2076,#2024_여행가는달과함께하는_발도장여행지 #가족과함께 #관광지 #문화관광해설사 #바다 #변산해수욕장 #여름피서지 #자연 #자연좋은곳 #자연환경 #전라권 #휴식여행 #휴식하기 #휴식하기좋은곳,DC021,P123,35.6812796,126.531507,LC008,"WT001, WT002, WT003, WT004","VW001, VW003",AC001
123,2,고사포해수욕장,전북특별자치도 부안군 변산면 노루목길 8-8,#가족과함께 #가족여행 #관광지 #바다풍경 #부안여행 #여름피서지 #자연 #자연속으로 #자연여행 #자연좋은곳 #자연풍경 #자연환경 #해수욕장 #휴식하기좋은곳 #휴양여행 #힐링여행,DC021,P124,35.6638860222773,126.510371333515,LC008,"WT001, WT002, WT003, WT004","VW001, VW003",AC001
124,3,채석강 (전북 서해안 국가지질공원),전북특별자치도 부안군 변산면 변산해변로 1,#2024_여행가는달과함께하는_발도장여행지 #가족여행 #관광지 #국가지질공원 #바다풍경 #부안채석강 #연중무휴 #자연 #자연관광지 #자연발생 #자연속으로 #자연여행 #자연좋은곳 #자연환경 #전라권 #전북_서해안_국가지질공원 #지질공원 #지질명소 #채석강 #해식절벽,DC021,P125,35.6282989375514,126.471015218673,LC008,"WT001, WT002, WT003, WT004","VW001, VW003",AC001
125,4,상록해수욕장,전북특별자치도 부안군 변산면 변산로 3210-16,#가족여행 #관광지 #바다풍경 #상록해수욕장 #아이와함께 #여름방학가볼만한곳 #여름여행 #여름휴가 #연인과함께 #자연 #친구와함께 #피서여행,DC021,P126,35.6006466345144,126.482227158741,LC008,"WT001, WT002, WT003, WT004","VW001, VW003",AC001
126,5,곰소항,전북특별자치도 부안군 진서면 곰소리,#가족과함께 #가족여행 #곰소염전 #곰소젓갈 #곰소항 #곰소항구 #관광지 #부안가볼만한곳 #자연 #짠내나는여행 #친구와함께,DC021,P127,35.5953179551672,126.609623719114,LC008,"WT001, WT002, WT003, WT004","VW001, VW003",AC001
127,1,모래미 해변,전라남도 영광군 백수읍 해안로 1389,#관광지 #영광여행 #영광해변 #영광해수욕장 #자연 #자연관광지 #전라권 #한시마을,DC022,P128,35.3632070109309,126.415609305583,LC007,WT002,"VW001, VW002, VW003",AC002
128,2,백수해안공원,전라남도 영광군 백수읍 백암리 223-2,#관광지 #영광 #해상공원,DC022,P129,35.3255821216842,126.37901812274,LC007,WT002,"VW001, VW002, VW003",AC002
129,3,영광노을전시관,전라남도 영광군 백수읍 해안로 957,#경치좋은곳 #노을전시관 #문화시설 #바다경치 #바다풍경 #산책길 #산책하기 #산책하기좋은곳 #숙박대전_가볼만한곳 #숙박대전_추천기사 #자연좋은곳 #전라권 #전시관 #해맞이&해돋이&해넘이여행,DC022,P130,35.353731926146,126.38928135481,LC007,WT002,"VW001, VW002, VW003",AC002
130,4,백수해안도로 노을전망대,전라남도 영광군 백수읍 대신리,#가족과함께 #관광지 #낙조 #당일치기여행 #백수해안도로,DC022,P131,35.3505166058567,126.400266642509,LC007,WT002,"VW001, VW002, VW003",AC002
131,1,학동흑진주몽돌해변,경상남도 거제시 동부면 학동6길 18-1,#가족과함께 #경상권 #관광지 #남녀노소 #레포츠 #몽돌해변 #사진찍기좋은곳 #사진촬영 #산책코스 #아이와함께 #연인과함께 #자연 #자연발생 #자연좋은곳 #자연체험 #자연환경 #학동흑진주몽돌해변 #휴식여행 #휴식하기좋은곳,DC023,P132,34.7733041468499,128.640242599561,LC005,"WT001, WT002, WT003, WT004","VW001, VW002, VW003","AC001, AC002, AC004, AC006"
132,2,바람의 언덕,경상남도 거제시 남부면 도장포마을,#17_18한국관광100선 #19_20한국관광100선 #2024_여행가는달과함께하는_발도장여행지 #21_22한국관광100선 #거제바람의언덕 #경남 #경상권 #관광지 #동백나무군락 #동백나무숲길 #동백터널 #동백터널숲 #드라마촬영지 #바람의언덕 #자연 #한국관광100선,DC023,P133,34.7439417,128.663203,LC005,"WT001, WT002, WT003, WT004","VW001, VW002, VW003","AC001, AC002, AC004, AC006"
133,3,신선대 전망대,경상남도 거제시 남부면 갈곶리,#가족과함께 #경상권 #경치좋은곳 #관광지 #드라마촬영지 #사진촬영명소 #신선대 #영화촬영지 #자연관광지 #자연속으로 #자연좋은곳 #자연환경 #전망대 #친구와함께 #해금강,DC023,P134,34.7406311738545,128.672022241146,LC005,"WT001, WT002, WT003, WT004","VW001, VW002, VW003","AC001, AC002, AC004, AC006"
134,4,거제 학동리 동백나무 숲 및 팔색조 번식지,경상남도 거제시 동부면 거제대로 684-22,#가족여행 #거제시동백군락지 #거제팔색조 #거제학동리동백나무숲 #경상권 #관광지 #국가지정문화재 #동백나무 #동백나무숲 #자연 #자연관광지 #자연발생 #자연좋은곳 #자연환경 #천연기념물 #팔색조 #팔색조번식지 #학동리동백나무 #학동팔색조 #휴식공간 #휴식여행 #휴식하기 #휴식하기좋은곳,DC023,P135,34.7577614,128.641038,LC005,"WT001, WT002, WT003, WT004","VW001, VW002, VW003","AC001, AC002, AC004, AC006"
135,5,거제도 해금강,경상남도 거제시 남부면 갈곶리,#2024_여행가는달과함께하는_발도장여행지 #가족여행 #거제도해금강 #경상권 #관광지 #자연,DC023,P136,34.7406311738545,128.672022241146,LC005,"WT001, WT002, WT003, WT004","VW001, VW002, VW003","AC001, AC002, AC004, AC006"
136,6,함목몽돌해변,경상남도 거제시 남부면 갈곶리,#거제가볼만한곳 #거제함목 #거제해수욕장 #경상권 #경치좋은곳 #관광지 #몽돌해수욕장 #바다풍경 #여름피서지 #연인과함께 #자연 #자연좋은곳 #친구와함께 #함목몽돌 #해금강,DC023,P137,34.7406311738545,128.672022241146,LC005,"WT001, WT002, WT003, WT004","VW001, VW002, VW003","AC001, AC002, AC004, AC006"
137,1,호미곶 해맞이광장,경상북도 포항시 남구 호미곶면 해맞이로150번길 20,#2024_여행가는달과함께하는_발도장여행지 #경상권 #경치좋은곳 #관광지 #기념관 #바다경치 #바다풍경 #사진찍기 #사진찍기좋은곳 #상생의손 #아이와함께 #일출명소 #일출일몰명소 #자연환경 #해맞이 #호미곶 #호미곶해맞이광장,DC024,P138,36.0778379128621,129.568256453096,LC006,"WT001, WT002, WT003, WT005","VW001, VW002, VW003, VW004, VW008","AC002, AC004, AC006"
138,2,구룡포 일본인 가옥거리,경상북도 포항시 남구 구룡포읍 구룡포길 153-1,#2024_여행가는달과함께하는_발도장여행지 #걷기좋은길 #경상권 #관광지 #구룡포일본인가옥거리 #나홀로여행 #데이트코스 #사계절 #역사관광지 #역사문화재 #역사속 #역사속으로 #역사이야기 #역사탐방 #역사탐험 #연인과함께 #인생샷 #체험,DC024,P139,35.9905388592413,129.561599346426,LC006,"WT001, WT002, WT003, WT005","VW001, VW002, VW003, VW004, VW008","AC002, AC004, AC006"
139,3,구룡포항,경상북도 포항시 남구 구룡포읍 호미로 222-1,#가족과함께 #관광지 #구룡포 #구룡포근대역사관 #구룡포시장 #구룡포일본인가옥거리 #구룡포항 #남녀노소 #드라마 촬영지 #바다내음 #바다바람 #아이와함께 #포항가볼만한곳 #항구 #해산물,DC024,P140,35.9892615174139,129.555611390462,LC006,"WT001, WT002, WT003, WT005","VW001, VW002, VW003, VW004, VW008","AC002, AC004, AC006"
140,1,정동진해변,강원특별자치도 강릉시 강동면 정동역길 17,#강원_가볼만한곳 #강원권 #강원도_여행지_추천 #관광지 #바다내음 #바다풍경 #바다풍경여행 #여름여행 #여름휴가 #연인과함께 #연중무휴 #자연 #정동진가볼만한곳 #정동진역 #정동진해변 #힐링여행,DC025,P141,37.6913398885234,129.03282949125,LC002,"WT001, WT002, WT003, WT004","VW001, VW002, VW003","AC001, AC002, AC003, AC004, AC005, AC006"
141,2,주문진읍 BTS 앨범사진 촬영지 (버스정류장),강원특별자치도 강릉시 주문진읍 향호리,#2024_여행가는달과함께하는_발도장여행지 #BTS #BTS버스정류장 #bts여행 #BTS촬영지 #bts투어 #TV속촬영지여행 #강릉가볼만한곳 #관광지 #남녀노소 #사진찍기 #사진찍기좋은곳 #사진촬영 #사진촬영명소 #자연좋은곳 #자연풍경 #자연환경 #주문진읍 #주문진해변 #친구와함께 #향호해변,DC025,P142,37.9037756186021,128.782777699283,LC002,"WT001, WT002, WT003, WT004","VW001, VW002, VW003","AC001, AC002, AC003, AC004, AC005, AC006"
142,3,하슬라아트월드,강원특별자치도 강릉시 강동면 율곡로 1441,#2024_여행가는달과함께하는_발도장여행지 #가족과함께 #강릉여행 #강원권 #강원권반려동물여행지 #관광지 #데이트코스 #미술관 #반려동물동반여행지 #복합문화공간 #산책길 #산책하기좋은곳 #연인과함께 #열린문화공간 #예술창작 #이색체험 #전망대 #전시관 #정동진 #종합예술 #친구와함께 #하슬라아트월드,DC025,P143,37.7054583826871,129.007843904557,LC002,"WT001, WT002, WT003, WT004","VW001, VW002, VW003","AC001, AC002, AC003, AC004, AC005, AC006"
143,4,주문진해변,강원특별자치도 강릉시 주문진읍 주문북로 210,#가족여행 #강원_가볼만한곳 #강원권 #강원도_여행지_추천 #관광지 #기차여행 #나들이 #당일치기여행 #데이트코스 #바다풍경 #바다풍경여행 #서울근교여행 #아이와함께 #여름방학가볼만한곳 #여름여행 #연인과함께 #자연 #자연좋은곳 #주문진해변 #체험학습 #친구와함께 #힐링,DC025,P144,37.910131525366,128.817676080292,LC002,"WT001, WT002, WT003, WT004","VW001, VW002, VW003","AC001, AC002, AC003, AC004, AC005, AC006"
144,5,강릉 경포해수욕장,강원특별자치도 강릉시 창해로 514,#2024_여행가는달과함께하는_발도장여행지 #강릉경포해수욕장 #강원권 #강원도_여행지_추천 #관광지 #바다경치 #바다풍경 #산불피해지역 #야간관광100선 #여름여행 #여름피서지 #여름휴가 #연중무휴 #자연 #친구와함께 #휴식여행 #휴식하기좋은곳,DC025,P145,37.8057701120176,128.907481194757,LC002,"WT001, WT002, WT003, WT004","VW001, VW002, VW003","AC001, AC002, AC003, AC004, AC005, AC006"
145,6,강릉커피거리,강원특별자치도 강릉시 창해로14번길 20-1,#2023_설날_디저트맛집 #2024_여행가는달과함께하는_발도장여행지 #21_22한국관광100선 #23_24한국관광100선 #강릉가볼만한곳 #강릉커피거리 #강원권 #관광지 #데이트장소추천 #미식여행 #바다풍경 #안목카페거리 #안목해변 #야간관광100선 #연인과함께 #이색카페 #지역특화주전부리 #친구와함께 #커피거리 #한국관광100선,DC025,P146,37.7726047009298,128.947338719945,LC002,"WT001, WT002, WT003, WT004","VW001, VW002, VW003","AC001, AC002, AC003, AC004, AC005, AC006"
146,1,삼척해변,강원특별자치도 삼척시 테마타운길 76,#가족여행 #강원권 #관광지 #기차여행 #나들이 #당일치기여행 #데이트코스 #바다풍경 #삼척해변 #서울근교여행 #아이와함께 #여름방학가볼만한곳 #여름여행 #연인과함께 #자연 #자연좋은곳 #체험학습 #친구와함께 #힐링,DC026,P147,37.4684085599287,129.168353886384,LC002,"WT001, WT002, WT003, WT004","VW001, VW002, VW003","AC001, AC002, AC003, AC004"
147,2,월천해변,강원특별자치도 삼척시 원덕읍 월천리 178-1,#관광지 #바다경치 #여름피서지 #자연속으로 #자연여행 #자연좋은곳 #자연풍경 #자연환경 #휴식공간 #휴식여행 #휴식하기좋은곳 #힐링여행,DC026,P148,37.1611689569142,129.353303229236,LC002,"WT001, WT002, WT003, WT004","VW001, VW002, VW003","AC001, AC002, AC003, AC004"
148,3,신남항,강원특별자치도 삼척시 원덕읍 신남길 127,#관광지,DC026,P149,37.2670989007074,129.327879289472,LC002,"WT001, WT002, WT003, WT004","VW001, VW002, VW003","AC001, AC002, AC003, AC004"
149,4,삼척 해신당공원,강원특별자치도 삼척시 원덕읍 삼척로 1852-6,#가족여행 #강원권 #걷기길 #경치좋은곳 #관광지 #산책길 #산책하기 #산책하기좋은곳 #삼척해신당공원 #자연좋은곳 #전망좋은곳 #휴양여행 #힐링여행,DC026,P150,37.2680172502562,129.327245702561,LC002,"WT001, WT002, WT003, WT004","VW001, VW002, VW003","AC001, AC002, AC003, AC004"
150,1,해금강테마박물관,경상남도 거제시 남부면 해금강로 120,#가족여행 #경상권 #교과서속여행 #문화시설 #박물관 #사계절 #실내여행지 #아이와함께 #작은박물관 #전시관 #체험학습 #추억여행 #해금강 #해금강테마박물관,DC027,P151,34.7405570656169,128.662644411123,LC005,"WT001, WT002, WT003","VW001, VW003, VW004, VW008","AC001, AC002, AC004, AC006"
151,2,학동흑진주몽돌해변,경상남도 거제시 동부면 학동6길 18-1,#가족과함께 #경상권 #관광지 #남녀노소 #레포츠 #몽돌해변 #사진찍기좋은곳 #사진촬영 #산책코스 #아이와함께 #연인과함께 #자연 #자연발생 #자연좋은곳 #자연체험 #자연환경 #학동흑진주몽돌해변 #휴식여행 #휴식하기좋은곳,DC027,P152,34.7733041468499,128.640242599561,LC005,"WT001, WT002, WT003","VW001, VW003, VW004, VW008","AC001, AC002, AC004, AC006"
152,3,도장포어촌체험마을,경상남도 거제시 남부면 도장포2길 24-1,#가족여행 #경상권 #관광지 #농어촌체험마을 #도장포어촌체험마을 #사진촬영명소 #어촌 #어촌마을 #어촌체험관광마을 #어촌체험마을 #자연좋은곳 #자연환경 #체험 #휴식공간 #휴식여행 #휴식하기 #휴식하기좋은곳,DC027,P153,34.7416168372204,128.663763391784,LC005,"WT001, WT002, WT003","VW001, VW003, VW004, VW008","AC001, AC002, AC004, AC006"
153,4,거제도 해금강,경상남도 거제시 남부면 갈곶리,#2024_여행가는달과함께하는_발도장여행지 #가족여행 #거제도해금강 #경상권 #관광지 #자연,DC027,P154,34.7406311738545,128.672022241146,LC005,"WT001, WT002, WT003","VW001, VW003, VW004, VW008","AC001, AC002, AC004, AC006"
154,1,옥계계곡,경상북도 영덕군 달산면 팔각산로,#가족여행 #경상권 #계곡 #관광지 #옥계계곡 #자연 #피서,DC028,P155,36.3297145,129.258906,LC006,"WT001, WT002, WT003, WT004",VW001,"AC001, AC006"
155,2,주산지(청송 국가지질공원),경상북도 청송군 주왕산면 주산지리,#2024_여행가는달과함께하는_발도장여행지 #23_24한국관광100선 #가족여행 #경상권 #관광지 #국가지질공원 #아이와함께 #연인과함께 #인생샷 #자연 #자연관광지 #자연발생 #자연속으로 #자연좋은곳 #자연풍경 #자연환경 #주산지 #지질공원 #지질명소 #청송_국가지질공원 #친구와함께 #한국관광100선 #휴양여행 #힐링,DC028,P156,36.3741752397767,129.182595375202,LC006,"WT001, WT002, WT003, WT004",VW001,"AC001, AC006"
156,3,산성계곡 생태공원,경상북도 영덕군 달산면 옥산리 515,#관광지,DC028,P157,36.3501917541611,129.27635130979,LC006,"WT001, WT002, WT003, WT004",VW001,"AC001, AC006"
157,1,우화정(내장산),전북특별자치도 정읍시 내장산로 936,#2024_여행가는달과함께하는_발도장여행지 #관광지 #내장산 #내장산국립공원 #연인과함께 #자연 #자연관광지 #자연발생 #자연좋은곳 #자연환경 #전망좋은곳 #정읍여행 #힐링,DC029,P158,35.4933701835851,126.927709748391,LC008,WT003,VW001,"AC001, AC004, AC005"
158,2,내장산 단풍생태공원,전북특별자치도 정읍시 내장동 560,#관광지,DC029,P159,35.5090223286437,126.9069599972,LC008,WT003,VW001,"AC001, AC004, AC005"
159,3,명인관,전북특별자치도 정읍시 내장산로 941-13,#더덕구이산채정식 #돌솥산채비빔밥 #맛집 #버섯전골 #불고기정식 #산채정식 #산채정식 #음식 #정읍시,DC029,P160,35.4932782965006,126.929617873201,LC008,WT003,VW001,"AC001, AC004, AC005"
160,4,전설의 쌍화차 거리,전북특별자치도 정읍시 중앙1길 147,#2024_여행가는달과함께하는_발도장여행지 #건강식 #건강여행 #건강차 #관광지 #쌍화차거리 #음식테마거리 #전라권 #체험 #휴식공간 #휴식여행 #휴식하기 #휴식하기좋은곳,DC029,P161,35.5675549245174,126.85675649357,LC008,WT003,VW001,"AC001, AC004, AC005"
161,1,삼척항 - 새천년도로변,강원특별자치도 삼척시 삼척항길 196,#레포츠 #밀레니엄도로 #삼척드라이브길 #삼척여행 #삼척해수욕장 #새천년도로 #영화외출 #해안드라이브,DC030,P162,37.436187926718,129.188160340913,LC002,"WT001, WT002, WT003, WT004","VW001, VW002, VW003","AC001, AC002, AC003, AC004, AC005"
162,2,삼척해변,강원특별자치도 삼척시 테마타운길 76,#가족여행 #강원권 #관광지 #기차여행 #나들이 #당일치기여행 #데이트코스 #바다풍경 #삼척해변 #서울근교여행 #아이와함께 #여름방학가볼만한곳 #여름여행 #연인과함께 #자연 #자연좋은곳 #체험학습 #친구와함께 #힐링,DC030,P163,37.4684085599287,129.168353886384,LC002,"WT001, WT002, WT003, WT004","VW001, VW002, VW003","AC001, AC002, AC003, AC004, AC005"
163,3,비치조각공원,강원특별자치도 삼척시 새천년도로 326,#강원권 #관광지 #데이트코스 #바다풍경 #비치조각공원 #산책길 #산책하기 #산책하기좋은곳 #여름여행 #여름휴가 #연인과함께 #이색카페 #휴식여행 #휴식하기좋은곳,DC030,P164,37.4567269334754,129.186043895188,LC002,"WT001, WT002, WT003, WT004","VW001, VW002, VW003","AC001, AC002, AC003, AC004, AC005"
164,4,소망의탑,강원특별자치도 삼척시 새천년도로 233,#2023_설날_소원 #강원권 #경치좋은곳 #관광지 #기념탑 #바다경치 #산책길 #산책하기 #산책하기좋은곳 #소망의탑 #연중무휴 #자연풍경 #자연환경 #휴식여행 #휴식하기,DC030,P165,37.450839030039,129.188403973267,LC002,"WT001, WT002, WT003, WT004","VW001, VW002, VW003","AC001, AC002, AC003, AC004, AC005"
165,5,작은후진해수욕장,강원특별자치도 삼척시 새천년도로 467,#가족과함께 #강원권 #관광지 #바다 #삼척여행 #삼척해수욕장 #여름피서지 #자연 #자연속으로 #자연여행 #자연좋은곳 #자연풍경 #자연환경,DC030,P166,37.4638818457361,129.175891873231,LC002,"WT001, WT002, WT003, WT004","VW001, VW002, VW003","AC001, AC002, AC003, AC004, AC005"
166,1,섯알오름,제주특별자치도 서귀포시 대정읍 상모리 1618,#관광지 #알뜨르비행장 #자연관광지 #제주43사건 #제주관광 #제주도오름 #제주역사여행,DC031,P167,33.2041831726414,126.28155185878,LC009,"WT002, WT003, WT004","VW001, VW002, VW003, VW004","AC001, AC002, AC006"
167,2,송악산,제주특별자치도 서귀포시 대정읍 송악관광로,#가족여행 #걷기길 #관광지 #바다풍경 #송악산 #연인과함께 #자연 #제주권 #친구와함께,DC031,P168,33.2077439,126.290967,LC009,"WT002, WT003, WT004","VW001, VW002, VW003, VW004","AC001, AC002, AC006"
168,3,용머리해안,제주특별자치도 서귀포시 안덕면 산방로 218-10,#2024_여행가는달과함께하는_발도장여행지 #경치여행 #경치좋은곳 #관광지 #바다경치 #바다내음 #바다풍경 #산방산 #용머리해안 #유네스코 #자연 #자연경관 #자연속으로 #자연여행 #자연좋은곳 #자연풍경 #자연환경 #전시관 #제주가볼만한곳 #제주권 #제주도_가볼만한곳 #제주여행 #제주트레일 #제주해변 #친환경여행,DC031,P169,33.2366379775546,126.313292062423,LC009,"WT002, WT003, WT004","VW001, VW002, VW003, VW004","AC001, AC002, AC006"
169,4,발자국화석공원,제주특별자치도 서귀포시 대정읍 형제해안로 192,#관광지 #동물발자국 #사계해안 #송악해안도로 #자연관광지 #제주관광 #제주발자국화석 #제주올레10코스,DC031,P170,33.2173594034123,126.293135312424,LC009,"WT002, WT003, WT004","VW001, VW002, VW003, VW004","AC001, AC002, AC006"
170,5,사계해변,제주특별자치도 서귀포시 안덕면 사계리,#2024_여행가는달과함께하는_발도장여행지 #경치좋은곳 #관광지 #마린포트홀 #바다경치 #여름피서지 #자연속으로 #자연여행 #자연좋은곳 #자연풍경 #자연환경 #제주해변 #최남단해변 #휴식여행 #휴식하기좋은곳,DC031,P171,33.2316941376585,126.306514122101,LC009,"WT002, WT003, WT004","VW001, VW002, VW003, VW004","AC001, AC002, AC006"
171,6,산방산(제주),제주특별자치도 서귀포시 안덕면 산방로 218-10,#가족여행 #걷기길 #관광지 #사진찍기좋은곳 #산방산(제주) #연인과함께 #자연 #자연관광지 #자연속으로 #자연여행 #자연좋은곳 #자연환경 #제주권 #제주도_가볼만한곳 #힐링,DC031,P172,33.2366379775546,126.313292062423,LC009,"WT002, WT003, WT004","VW001, VW002, VW003, VW004","AC001, AC002, AC006"
172,1,의암호스카이워크,강원특별자치도 춘천시 칠전동 485,#가족과함께 #걷기길 #관광지 #남녀노소 #산책코스 #산책하기좋은곳 #스카이워크 #아이와함께 #연인과함께 #의암호 #자연좋은곳 #휴식여행 #휴식하기 #휴식하기좋은곳,DC032,P173,37.8471139560505,127.679946417046,LC002,"WT001, WT002, WT003","VW001, VW002","AC001, AC002, AC004"
173,2,춘천평화생태공원꿈자람물정원,강원특별자치도 춘천시 소양로3가 128-1,#관광지,DC032,P174,37.8807609751755,127.720480198115,LC002,"WT001, WT002, WT003","VW001, VW002","AC001, AC002, AC004"
174,3,춘천문학공원,강원특별자치도 춘천시 서면 금산리 500-4,#경치좋은곳 #관광지 #남녀노소 #문학공원 #산책하기좋은곳 #수변공원 #아이와함께 #자연환경 #휴식하기좋은곳 #힐링산책,DC032,P175,37.9009463402056,127.696888322688,LC002,"WT001, WT002, WT003","VW001, VW002","AC001, AC002, AC004"
175,4,공지천유원지,강원특별자치도 춘천시 이디오피아길 25,#관광지,DC032,P176,37.8746258252367,127.709531349705,LC002,"WT001, WT002, WT003","VW001, VW002","AC001, AC002, AC004"
176,5,춘천 애니메이션박물관&토이로봇관,강원특별자치도 춘천시 서면 박사로 854,#가족과함께 #가족여행 #문화시설 #아이와함께 #이색체험 #체험학습 #춘천가볼만한곳,DC032,P177,37.8930610610383,127.691892620055,LC002,"WT001, WT002, WT003","VW001, VW002","AC001, AC002, AC004"
177,1,사촌해수욕장,경상남도 남해군 남면 남면로1229번길 44,#관광지 #사촌해수욕장 #여름피서지 #자연 #해수욕장,DC033,P178,34.7435548594097,127.85634020793,LC005,"WT002, WT003, WT004","VW001, VW003",AC002
178,2,"두곡, 월포해수욕장",경상남도 남해군 남면 남면로111번길 77,#가족여행 #경상권 #관광지 #두곡해수욕장 #바다풍경 #여름여행 #여름휴가 #연인과함께 #월포해수욕장 #자연 #친구와함께 #피서여행,DC033,P179,34.7673097748559,127.905738163041,LC005,"WT002, WT003, WT004","VW001, VW003",AC002
179,3,가천 다랭이마을,경상남도 남해군 남면 홍현리 남면로 679번길 21,#15_16한국관광100선 #2024_여행가는달과함께하는_발도장여행지 #가족여행 #가천다랭이마을 #경남 #경상권 #경상권 #관광지 #남해다랭이마을 #숙박 #자연 #자연좋은곳 #한국관광100선,DC033,P180,34.7275201227888,127.894034677694,LC005,"WT002, WT003, WT004","VW001, VW003",AC002
180,4,평산항,경상남도 남해군 남면 남면로1739번길 40,#경남남해평산항 #경남평산항 #관광지 #남해여행 #남해평산마을 #남해평산항,DC033,P181,34.7672036110153,127.847938587121,LC005,"WT002, WT003, WT004","VW001, VW003",AC002
181,5,서상항,경상남도 남해군 서면 서상리 1316-6,#관광지 #남해낚시 #남해산책길 #남해서상항 #남해여행 #남해항구,DC033,P182,34.8093724034911,127.833355373001,LC005,"WT002, WT003, WT004","VW001, VW003",AC002
182,1,계족산 황톳길,대전광역시 대덕구 장동 산85,#19_20한국관광100선 #2024_여행가는달과함께하는_발도장여행지 #21_22한국관광100선 #가족과함께 #걷기좋은곳 #계족산 #계족산황톳길 #레포츠 #산책코스 #숙박대전_가볼만한곳 #숙박대전_추천기사 #야간관광100선 #연인과함께 #충청권 #트레킹 #한국관광100선 #황톳길,DC034,P183,36.3947053348808,127.45384874619,LC003,"WT001, WT002, WT003","VW001, VW004, VW008","AC001, AC002, AC003, AC004"
183,2,대청호오백리길,대전광역시 동구 천개동로 34,#가족여행 #대청호오백리길 #레포츠 #산책코스 #충청권,DC034,P184,36.3738592355726,127.471949740377,LC003,"WT001, WT002, WT003","VW001, VW004, VW008","AC001, AC002, AC003, AC004"
184,3,한밭수목원,대전광역시 서구 둔산대로 169,#2024_여행가는달과함께하는_발도장여행지 #23_24한국관광100선 #가족여행 #걷기길 #관광지 #나들이 #연인과함께 #자연 #자연&숲 #자연좋은곳 #장미여행지 #충청권 #치유 #한국관광100선 #한밭수목원 #힐링,DC034,P185,36.3664690153972,127.388017285001,LC003,"WT001, WT002, WT003","VW001, VW004, VW008","AC001, AC002, AC003, AC004"
185,4,천연기념물센터(대전),대전광역시 서구 유등로 927,#2024_여행가는달과함께하는_발도장여행지 #가족여행 #가족체험여행 #교과서속정보 #대전가볼만한곳 #문화시설 #미세먼지_피하는_실내여행 #박물관 #사계절 #아이와함께 #여름방학가볼만한곳 #이색체험 #자연유산 #전시 #천연기념물 #천연기념물센터 #충청권,DC034,P186,36.3678329653785,127.392506263944,LC003,"WT001, WT002, WT003","VW001, VW004, VW008","AC001, AC002, AC003, AC004"
186,1,하평해변(동해),강원특별자치도 동해시 평릉동 40-1,#경치여행 #경치좋은곳 #관광지 #바다경치 #여름피서지 #자연관광지 #자연속으로 #자연여행 #자연좋은곳 #자연풍경 #자연환경,DC035,P187,37.5335207609205,129.116389948966,LC002,"WT001, WT002, WT003, WT004","VW001, VW002, VW003","AC001, AC002, AC003, AC004"
187,2,추암 촛대바위,강원특별자치도 동해시 추암동,#2024_여행가는달과함께하는_발도장여행지 #강원권 #강원도_여행지_추천 #관광지 #명소 #산불피해지역 #자연 #추암촛대바위 #풍경,DC035,P188,37.4706409837437,129.149990688796,LC002,"WT001, WT002, WT003, WT004","VW001, VW002, VW003","AC001, AC002, AC003, AC004"
188,3,묵호등대,강원특별자치도 동해시 해맞이길 300,#강원권 #강원도_여행지_추천 #강원웰니스관광지 #관광지 #동해웰니스관광 #드라마촬영지 #묵호등대 #바다풍경 #산불피해지역 #연인과함께 #영화촬영지 #웰니스관광 #자연,DC035,P189,37.5538447969701,129.118156978433,LC002,"WT001, WT002, WT003, WT004","VW001, VW002, VW003","AC001, AC002, AC003, AC004"
189,4,동해 논골담길 (등대 담화마을),강원특별자치도 동해시 일출로 97,#가족여행 #강원권 #레포츠 #문화관광해설사 #산불피해지역 #산책코스 #주말여행,DC035,P190,37.5521623124997,129.118316967169,LC002,"WT001, WT002, WT003, WT004","VW001, VW002, VW003","AC001, AC002, AC003, AC004"
190,5,망상해변,강원특별자치도 동해시 동해대로 6270-10,#가족여행 #강원_가볼만한곳 #강원도_여행지_추천 #관광지 #기차여행 #나들이 #당일치기여행 #데이트코스 #동해바다 #동해안 #망상해변 #바다풍경 #바다풍경여행 #서울근교여행 #아이와함께 #여름방학가볼만한곳 #여름여행 #연인과함께 #일출명소 #자연 #자연좋은곳 #체험학습 #친구와함께 #해돋이 #힐링,DC035,P191,37.5922569104686,129.089689992668,LC002,"WT001, WT002, WT003, WT004","VW001, VW002, VW003","AC001, AC002, AC003, AC004"
191,1,운일암 반일암 계곡,전북특별자치도 진안군 주천면 동상주천로 1926,#2024_여행가는달과함께하는_발도장여행지 #계곡 #관광지 #국내힐링여행 #등산 #여름여행 #여름피서지 #운일암반일암 #운일암반일암계곡 #자연 #자연속으로 #자연여행 #자연좋은곳 #자연풍경 #자연환경 #전라권 #진안계곡구름다리 #진안구름다리 #진안반일암 #진안옥수청산 #진안운일암 #힐링여행 #힐링여행지,DC036,P192,35.9758698371627,127.409151929386,LC008,WT002,"VW001, VW002, VW007, VW008","AC001, AC002, AC004"
192,2,부귀 편백숲 삼림욕장,전북특별자치도 진안군 부귀면 전진로 1935-15,#경치좋은곳 #관광지 #자연 #자연관광지 #자연속으로 #자연여행 #자연좋은곳 #자연체험 #자연풍경 #자연환경 #휴식공간 #휴식여행 #휴식하기 #휴식하기좋은곳,DC036,P193,35.8416002032937,127.347726475883,LC008,WT002,"VW001, VW002, VW007, VW008","AC001, AC002, AC004"
193,3,용담호,전북특별자치도 진안군 용담면 월계리,#2024_여행가는달과함께하는_발도장여행지 #가족과함께 #관광지 #드라이브코스 #벚꽃길 #벚꽃명소 #용담호 #자연 #자연관광지,DC036,P194,35.9314635350718,127.507111938913,LC008,WT002,"VW001, VW002, VW007, VW008","AC001, AC002, AC004"
194,1,속동전망대,충청남도 홍성군 서부면 남당항로 689,#갯벌 #경치좋은곳 #관광지 #데이트코스 #바다경치 #바다전망 #바다전망대 #사진찍기좋은곳 #사진촬영 #속동갯벌 #연인과함께 #자연좋은곳 #자연환경 #전망대 #커플데이트 #타이타닉포토존 #해안전망대 #홍성속동전망대,DC037,P195,36.5770226953143,126.464592720503,LC003,"WT002, WT003","VW001, VW002, VW003","AC001, AC005, AC006"
195,2,홍성방조제,충청남도 홍성군 서부면,#관광지 #바다풍경 #방조제 #자연 #충청권 #홍성 #홍성방조제 #홍성여행 #힐링,DC037,P196,36.5803273092588,126.51723142167,LC003,"WT002, WT003","VW001, VW002, VW003","AC001, AC005, AC006"
196,3,남당항,충청남도 홍성군 서부면 남당리,#가족과함께 #관광지 #남당항 #대하 #대하축제 #미식여행 #바다풍경 #새조개 #새조개축제 #수산물 #자연 #죽도 #천수만 #철새도래지 #충청권 #홍성남당항,DC037,P197,36.5398850176414,126.479723667165,LC003,"WT002, WT003","VW001, VW002, VW003","AC001, AC005, AC006"
197,4,천수만(철새도래지),충청남도 서산시 부석면,#간월도 #간월호 #겨울철새 #관광지 #서산방조제 #서산버드랜드 #서산천수만 #자연 #천수만 #철새도래지 #충청권 #탐조관광명소,DC037,P198,36.7148738592682,126.393763892659,LC003,"WT002, WT003","VW001, VW002, VW003","AC001, AC005, AC006"
198,1,정지용 생가,충청북도 옥천군 옥천읍 향수길 56,#관광지 #교과서속여행 #아이와함께 #역사 #역사공부 #역사관광지 #역사를품은곳 #역사문화재 #역사속으로 #역사유적 #역사유적지 #역사이야기 #역사탐험 #정지용생가 #충청권,DC038,P199,36.3149373923949,127.581608157386,LC003,"WT001, WT002",VW004,
199,2,교동저수지(교동생태습지),충청북도 옥천군 옥천읍 교동리 155-7번지,#관광지,DC038,P200,36.3200716952834,127.582466464175,LC003,"WT001, WT002",VW004,
200,3,정지용 문학관,충청북도 옥천군 옥천읍 향수길 56,#가족과함께 #교과서속여행 #기념관 #남녀노소 #문학관 #문학기행 #문화시설 #아이와함께 #옥천가볼만한곳 #전시회 #정지용문학관 #정지용생가 #주말추천여행지 #충청권,DC038,P201,36.3149373923949,127.581608157386,LC003,"WT001, WT002",VW004,
201,1,관방제림,전라남도 담양군 담양읍 객사리1,#2024_여행가는달과함께하는_발도장여행지 #걷기길 #관광지 #관방제림 #숙박대전_가볼만한곳 #숙박대전_추천기사 #연인과함께 #연중무휴 #자연 #자연좋은곳 #전라권,DC014,P202,35.3235795188355,126.988584292126,LC007,"WT001, WT002, WT003, WT004","VW001, VW004, VW006","AC001, AC002, AC003, AC004, AC005, AC006"
202,2,해동문화예술촌,전라남도 담양군 담양읍 지침1길 6,#도시예술 #문화시설 #문화예술복합공간 #실험예술 #정기적주제전시 #체험프로그램 #해동문화예술촌,DC014,P203,35.3175572435866,126.98383422481,LC007,"WT001, WT002, WT003, WT004","VW001, VW004, VW006","AC001, AC002, AC003, AC004, AC005, AC006"
203,3,죽녹원,전라남도 담양군 담양읍 죽녹원로 119,#2024_여행가는달과함께하는_발도장여행지 #21_22한국관광100선 #23_24한국관광100선 #SNS속_인생샷명소 #가족과함께 #가족여행 #관광지 #담양죽녹원 #생태관광지 #숲체험원 #연인과함께 #연중무휴 #인생샷 #인생샷여행 #자연 #자연좋은곳 #전남 #전라권 #전라권 #죽녹원 #친구와함께 #프사_백만장_인생샷 #한국관광100선 #휴양여행 #힐링여행,DC014,P204,35.3253566595919,126.986615504496,LC007,"WT001, WT002, WT003, WT004","VW001, VW004, VW006","AC001, AC002, AC003, AC004, AC005, AC006"
204,4,승일식당,전라남도 담양군 담양읍 중앙로 98-1,#냉면담백한_맛 #담양군 #돼지갈비 #맛집 #숯불갈비 #숯불돼지갈비 #음식 #참숯불갈비,DC014,P205,35.3220036828955,126.982328651181,LC007,"WT001, WT002, WT003, WT004","VW001, VW004, VW006","AC001, AC002, AC003, AC004, AC005, AC006"
205,1,봉화선유교,경상북도 봉화군 명호면 풍호리,#35번국도 #경북출렁다리 #관광지 #대한민국아름다운길 #범바위전망대 #봉화가볼만한곳 #봉화여행 #예던길 #퇴계이황길,DC039,P206,36.8441155558057,128.873643220587,LC006,"WT001, WT002, WT003, WT004","VW001, VW002, VW004, VW005, VW007, VW008","AC001, AC002"
206,2,월영교,경상북도 안동시 상아동,#2022_추석_별빛_가득_야간관광 #2024_여행가는달과함께하는_발도장여행지 #INFP낭만여행 #가족여행 #경상권 #관광지 #봄꽃여행 #산책하기 #산책하기좋은곳 #안동가볼만한곳 #안동여행 #야간 #야간관람 #야경 #야경좋은곳 #연인과함께 #월영교 #자연 #힐링여행,DC039,P207,36.578637577453,128.747210868584,LC006,"WT001, WT002, WT003, WT004","VW001, VW002, VW004, VW005, VW007, VW008","AC001, AC002"
207,3,청량산도립공원,경상북도 봉화군 명호면 광석길 39,#가족여행 #관광지 #꽃여행 #등산 #등산로 #명승23호 #봉화청량산 #봉화트레킹 #아이와함께 #연인과함께 #자연 #자연좋은곳 #전망좋은곳 #조깅 #청량사 #청량산 #청량산박물관 #친구와함께 #퇴계이황,DC039,P208,36.788082224382,128.893878195321,LC006,"WT001, WT002, WT003, WT004","VW001, VW002, VW004, VW005, VW007, VW008","AC001, AC002"
208,4,범바위 전망대,경상북도 봉화군 명호면 도천리 산 343-1,#관광지,DC039,P209,36.8694907257737,128.905433086668,LC006,"WT001, WT002, WT003, WT004","VW001, VW002, VW004, VW005, VW007, VW008","AC001, AC002"
209,1,보성녹차 시배지,전라남도 보성군 문덕면 죽산길 506-8,#관광지,DC040,P210,34.9613402347513,127.133342183115,LC007,"WT001, WT002, WT004","VW001, VW004, VW006, VW008","AC001, AC004"
210,2,대원사(보성),전라남도 보성군 문덕면 죽산길 506-8,#가족여행 #관광지 #교과서속여행 #대원사 #불교 #불교문화 #사찰 #사찰여행 #산사 #아이와함께 #역사 #역사유적지 #자연환경 #전통사찰 #전통역사문화체험 #종교 #친구와함께 #템플스테이 #한국불교 #휴식하기좋은곳,DC040,P211,34.9613402347513,127.133342183115,LC007,"WT001, WT002, WT004","VW001, VW004, VW006, VW008","AC001, AC004"
211,3,대원사 티벳박물관,전라남도 보성군 죽산길 520-1,#가족여행 #가족체험여행 #다문화 #문화시설 #박물관 #사계절 #아이와함께 #이색체험 #인증샷백만개_인스타_갬성여행 #전라권 #체험학습,DC040,P212,34.9591516469849,127.132037035948,LC007,"WT001, WT002, WT004","VW001, VW004, VW006, VW008","AC001, AC004"
212,1,장사해수욕장,경상북도 영덕군 남정면 동해대로 3592,#가족여행 #관광지 #동해바다 #동해해수욕장 #바다경치 #바다내음 #바다풍경 #여름피서지 #여름휴가 #영덕해수욕장 #자연 #자연좋은곳 #자연풍경 #피서 #해양레포츠,DC041,P213,36.282418704991,129.37559384725,LC006,"WT001, WT002, WT003","VW001, VW002, VW003","AC004, AC006"
213,2,영덕해맞이공원,경상북도 영덕군 영덕읍 영덕대게로 968,#2024_여행가는달과함께하는_발도장여행지 #경상권 #경치좋은곳 #관광지 #데이트코스 #바다풍경 #연인과함께 #연중무휴 #영덕블루로드 #영덕해맞이공원 #자연속으로 #자연좋은곳 #자연풍경 #자연환경 #전망좋은곳 #창포말등대 #해맞이공원 #해맞이여행,DC041,P214,36.4221012996321,129.433050463442,LC006,"WT001, WT002, WT003","VW001, VW002, VW003","AC004, AC006"
214,3,영덕해맞이공원,경상북도 영덕군 영덕읍 영덕대게로 968,#2024_여행가는달과함께하는_발도장여행지 #경상권 #경치좋은곳 #관광지 #데이트코스 #바다풍경 #연인과함께 #연중무휴 #영덕블루로드 #영덕해맞이공원 #자연속으로 #자연좋은곳 #자연풍경 #자연환경 #전망좋은곳 #창포말등대 #해맞이공원 #해맞이여행,DC041,P215,36.4221012996321,129.433050463442,LC006,"WT001, WT002, WT003","VW001, VW002, VW003","AC004, AC006"
215,4,강구항,경상북도 영덕군 강구면 강구리 253-51,#강구대게거리 #강구항 #경상권 #관광지 #대게거리 #드라마촬영지 #영덕대게 #자연 #항구,DC041,P216,36.3587601610828,129.391281313436,LC006,"WT001, WT002, WT003","VW001, VW002, VW003","AC004, AC006"
216,5,영덕풍력발전단지,경상북도 영덕군 영덕읍 창포리,#가족여행 #경북신재생에너지 #관광지 #산업관광 #산업관광지 #신재생에너지 #아이와함께 #연중무휴 #영덕블루로드 #영덕일출명소 #영덕풍력발전단지 #영덕해맞이공원 #인생샷 #일출일몰명소 #창포리풍력발전단지 #친환경에너지 #테마 #풍력발전소,DC041,P217,36.4160307447995,129.424240828284,LC006,"WT001, WT002, WT003","VW001, VW002, VW003","AC004, AC006"
217,6,영덕풍력발전단지,경상북도 영덕군 영덕읍 창포리,#가족여행 #경북신재생에너지 #관광지 #산업관광 #산업관광지 #신재생에너지 #아이와함께 #연중무휴 #영덕블루로드 #영덕일출명소 #영덕풍력발전단지 #영덕해맞이공원 #인생샷 #일출일몰명소 #창포리풍력발전단지 #친환경에너지 #테마 #풍력발전소,DC041,P218,36.4160307447995,129.424240828284,LC006,"WT001, WT002, WT003","VW001, VW002, VW003","AC004, AC006"
218,7,장사해수욕장,경상북도 영덕군 남정면 동해대로 3592,#가족여행 #관광지 #동해바다 #동해해수욕장 #바다경치 #바다내음 #바다풍경 #여름피서지 #여름휴가 #영덕해수욕장 #자연 #자연좋은곳 #자연풍경 #피서 #해양레포츠,DC041,P219,36.282418704991,129.37559384725,LC006,"WT001, WT002, WT003","VW001, VW002, VW003","AC004, AC006"
219,8,강구항,경상북도 영덕군 강구면 강구리 253-51,#강구대게거리 #강구항 #경상권 #관광지 #대게거리 #드라마촬영지 #영덕대게 #자연 #항구,DC041,P220,36.3587601610828,129.391281313436,LC006,"WT001, WT002, WT003","VW001, VW002, VW003","AC004, AC006"
220,1,광양 매화마을,전라남도 광양시 다압면 섬진강매화로 1563-1,#2024_여행가는달과함께하는_발도장여행지 #가족과함께 #가족체험 #관광지 #농촌체험 #농촌체험마을 #농촌체험여행 #농촌체험학습 #농촌테마파크 #아이와함께 #자연마을 #자연풍경 #자연환경 #체험,DC042,P221,35.0803490967465,127.715305119184,LC007,"WT001, WT002, WT003, WT004, WT005","VW001, VW004, VW006, VW007","AC001, AC003, AC004, AC005"
221,2,최참판댁,경상남도 하동군 악양면 평사리길 66-7,#가족과함께 #가족여행 #경상권 #관광지 #드라마촬영지 #소설토지 #슬로우시티 #역사 #역사공부 #역사관광지 #역사를품은곳 #역사속 #역사여행 #역사이야기 #역사탐방 #역사탐험 #전통가옥 #최참판댁 #한옥,DC042,P222,35.1559090452533,127.688434600684,LC005,"WT001, WT002, WT003, WT004, WT005","VW001, VW004, VW006, VW007","AC001, AC003, AC004, AC005"
222,3,하동 화개장터,경상남도 하동군 화개면 쌍계로 15,#2024_여행가는달과함께하는_발도장여행지 #가족여행 #경상권 #기차여행 #나들이 #나홀로여행 #먹거리 #쇼핑 #시장맛집 #아이와함께 #연인과함께 #전통시장 #전통시장투어 #체험학습 #친구와함께 #하동화개장터 #힐링,DC042,P223,35.1880401874567,127.624086776098,LC005,"WT001, WT002, WT003, WT004, WT005","VW001, VW004, VW006, VW007","AC001, AC003, AC004, AC005"
223,4,쌍계사(하동),경상남도 하동군 화개면 쌍계사길 59,#경상권 #관광지 #불교 #불교사찰 #사찰 #산사 #역사 #역사유적지 #자연속으로 #자연환경 #지리산사찰 #지리산여행 #하동사찰 #하동여행 #한국불교 #휴식공간 #휴식여행 #휴식하기 #휴식하기좋은곳,DC042,P224,35.2327861183024,127.651035235626,LC005,"WT001, WT002, WT003, WT004, WT005","VW001, VW004, VW006, VW007","AC001, AC003, AC004, AC005"
224,1,죽성성당(드림세트장),부산광역시 기장군 기장읍 죽성리 134-7,#2024_여행가는달과함께하는_발도장여행지 #TV속촬영지여행 #경치좋은곳 #관광지 #드라마촬영지 #드라이브코스 #바다경치 #부산가볼만한곳 #사진찍기좋은곳 #연인과함께 #이색체험 #죽성성당 #체험관광지 #해안도로,DC043,P225,35.2411560063801,129.247892512776,LC004,WT003,"VW001, VW002, VW003, VW004, VW006","AC001, AC004, AC006"
225,2,대변마을,부산광역시 기장군 기장읍 기장해안로 605,#경상권 #관광지 #대변마을 #바다내음 #숙박 #어촌마을 #자연 #자연환경 #휴식여행 #휴식하기좋은곳 #힐링여행,DC043,P226,35.2247796540003,129.230369319202,LC004,WT003,"VW001, VW002, VW003, VW004, VW006","AC001, AC004, AC006"
226,3,월전포구(월전방파제),부산광역시 기장군 기장읍 월전해안길 31,#관광지 #기장월전방파제 #기장월전포구 #부산여행 #부산월전방파제 #부산월전포구,DC043,P227,35.2378637098117,129.245349149867,LC004,WT003,"VW001, VW002, VW003, VW004, VW006","AC001, AC004, AC006"
227,4,해동 용궁사(부산),부산광역시 기장군 기장읍 용궁길 86,#2023_설날_소원 #2024_여행가는달과함께하는_발도장여행지 #INFP혼행 #경상권 #경치좋은곳 #관광지 #기장군 #바다경치 #부산가볼만한곳 #불교 #불교문화 #사찰 #사찰여행 #산사 #역사 #연중무휴 #전통사찰 #한국불교 #해동용궁사 #휴식공간 #휴식여행 #휴식하기 #휴식하기좋은곳,DC043,P228,35.1882392674714,129.223245860198,LC004,WT003,"VW001, VW002, VW003, VW004, VW006","AC001, AC004, AC006"
228,5,죽성항(황학대),부산광역시 기장군 기장읍 죽성리 30-33,#관광지,DC043,P229,35.242609311602,129.246821166397,LC004,WT003,"VW001, VW002, VW003, VW004, VW006","AC001, AC004, AC006"
229,1,삼봉해수욕장,충청남도 태안군 안면읍,#가족여행 #관광지 #나들이 #데이트코스 #바다풍경 #삼봉해수욕장 #아이와함께 #여름여행 #연인과함께 #자연 #자연좋은곳 #체험학습 #충청권 #친구와함께 #피서여행 #힐링,DC044,P230,36.5205361060368,126.344511519837,LC003,"WT001, WT002, WT003, WT004","VW001, VW002, VW003","AC001, AC003, AC004"
230,2,두에기해변,충청남도 태안군 안면읍 승언리 2004-8,#관광지 #두에기해수욕장 #바다경치 #여름피서지 #자연속으로 #자연여행 #자연좋은곳 #자연풍경 #자연환경 #태안두에기 #태안두에기해변 #태안여행 #태안피서지 #태안해변 #태안해수욕장 #휴식여행 #휴식하기좋은곳,DC044,P231,36.5190674308336,126.328649779203,LC003,"WT001, WT002, WT003, WT004","VW001, VW002, VW003","AC001, AC003, AC004"
231,3,기지포해수욕장,충청남도 태안군 안면읍 해안관광로 745-19,#가족여행 #관광지 #기지포해수욕장 #바다풍경 #여름여행 #여름피서지 #여름휴가 #연인과함께 #자연 #충청권 #친구와함께,DC044,P232,36.562731298958,126.32235183895,LC003,"WT001, WT002, WT003, WT004","VW001, VW002, VW003","AC001, AC003, AC004"
232,4,밧개해수욕장,충청남도 태안군 안면읍 승언리,#가족여행 #관광지 #바다풍경 #밧개해수욕장 #여름여행 #여름휴가 #연인과함께 #일몰 #자연 #충청권 #친구와함께 #캠핑 #태안밧개해수욕장 #태안밧개해수욕장여행 #태안밧개해수욕장캠핑 #해루질,DC044,P233,36.5051678525711,126.362764309111,LC003,"WT001, WT002, WT003, WT004","VW001, VW002, VW003","AC001, AC003, AC004"
233,5,백사장해수욕장,충청남도 태안군 안면읍 창기리,#가족여행 #관광지 #바다풍경 #백사장해수욕장 #여름여행 #여름휴가 #연인과함께 #자연 #충청권 #친구와함께,DC044,P234,36.5854621120178,126.348012379501,LC003,"WT001, WT002, WT003, WT004","VW001, VW002, VW003","AC001, AC003, AC004"
234,6,방포해수욕장,충청남도 태안군 안면읍 방포1길 29-1,#가족여행 #관광지 #나들이 #데이트코스 #바다풍경 #방포해수욕장 #방포해수욕장해변몽돌 #서해바다 #서해해수욕장 #아이와함께 #여름여행 #연인과함께 #자연 #자연좋은곳 #체험학습 #충청권 #친구와함께 #태안가족여행 #태안바다 #태안방포해수욕장 #태안아담한해수욕장 #피서여행 #해변벤치 #힐링,DC044,P235,36.5088135684702,126.333101011874,LC003,"WT001, WT002, WT003, WT004","VW001, VW002, VW003","AC001, AC003, AC004"
235,7,두여해수욕장,충청남도 태안군 안면읍 정당리 1313-1,#경치여행 #경치좋은곳 #관광지 #여름피서지 #자연 #자연속으로 #자연여행 #자연좋은곳 #자연풍경 #자연환경 #해수욕장,DC044,P236,36.543658562547,126.329667679297,LC003,"WT001, WT002, WT003, WT004","VW001, VW002, VW003","AC001, AC003, AC004"
236,8,꽃지해수욕장,충청남도 태안군 안면읍 승언리,#2024_여행가는달과함께하는_발도장여행지 #21_22한국관광100선 #23_24한국관광100선 #관광지 #꽃지해수욕장 #바다풍경 #아이와함께 #연인과함께 #자연 #충청권 #친구와함께 #한국관광100선,DC044,P237,36.5051678525711,126.362764309111,LC003,"WT001, WT002, WT003, WT004","VW001, VW002, VW003","AC001, AC003, AC004"
237,9,안면해수욕장,충청남도 태안군 안면읍 정당리,#가족여행 #관광지 #레포츠 #바다낚시 #바다내음 #바다풍경 #안면해수욕장 #자연 #충청권 #친구와함께 #휴식하기좋은곳,DC044,P238,36.5291377720412,126.379785415565,LC003,"WT001, WT002, WT003, WT004","VW001, VW002, VW003","AC001, AC003, AC004"
238,1,대방진굴항,경상남도 사천시 굴항길 99,#가족여행 #경치좋은곳 #관광지 #대방진굴항 #사천가볼만한곳 #아이와함께 #역사 #연인과함께 #자연속으로 #자연여행 #자연좋은곳 #자연풍경 #자연환경 #친구와함께,DC045,P239,34.9288991,128.05631,LC005,"WT001, WT002, WT003, WT004","VW001, VW002, VW004, VW005, VW007","AC001, AC002, AC005"
239,2,모충공원,경상남도 사천시 송포동 1144-1,#관광지,DC045,P240,34.966464942499,128.048110647694,LC005,"WT001, WT002, WT003, WT004","VW001, VW002, VW004, VW005, VW007","AC001, AC002, AC005"
240,3,삼천포대교공원,경상남도 사천시 사천대로 17,#가족과함께 #경치좋은곳 #관광지 #드라이브 #산책코스 #산책하기좋은곳 #삼천포대교 #삼천포대교공원 #아이와함께 #야간관광100선 #야경맛집 #연인과함께 #휴식공간 #휴식공원 #휴식여행 #휴식하기좋은곳,DC045,P241,34.932294187661,128.052334830435,LC005,"WT001, WT002, WT003, WT004","VW001, VW002, VW004, VW005, VW007","AC001, AC002, AC005"
241,4,삼천포항,경상남도 사천시 어시장길 34-4,#관광지 #자연,DC045,P242,34.9265526584522,128.069652461976,LC005,"WT001, WT002, WT003, WT004","VW001, VW002, VW004, VW005, VW007","AC001, AC002, AC005"
242,1,교동도(강화),인천광역시 강화군 교동면 교동남로 35,#2021_휴가철찾아가고싶은_33섬 #2023찾아가고싶은섬 #2023찾아가고싶은섬_가을섬 #가족과함께 #강화가볼만한곳 #강화도여행 #관광지 #교동도 #시간이멈춘섬 #아이와함께 #자연 #자연마을 #자연좋은곳 #자연환경 #휴식여행 #휴식하기좋은곳 #힐링여행,DC046,P243,37.7804893804077,126.28104964275,LC001,"WT001, WT002, WT003, WT004","VW001, VW002","AC001, AC005, AC006"
243,2,조양방직,인천광역시 강화군 강화읍 향나무길5번길 12,#2024_여행가는달과함께하는_발도장여행지 #SNS속_인생샷명소 #데이트 #레트로 #레트로여행 #연인과함께 #음식 #인생샷 #조양방직 #친구와함께 #커플데이트,DC046,P244,37.7467787566069,126.480970774647,LC001,"WT001, WT002, WT003, WT004","VW001, VW002","AC001, AC005, AC006"
244,3,애기봉평화생태공원,경기도 김포시 하성면 평화공원로 139,#경치여행 #경치좋은곳 #관광지 #수도권 #안보관광 #애기봉 #자연 #자연좋은곳 #자연풍경 #자연환경 #전망좋은곳,DC046,P245,37.7432509919701,126.59406775424,LC001,"WT001, WT002, WT003, WT004","VW001, VW002","AC001, AC005, AC006"
245,4,파주 DMZ 곤돌라,경기도 파주시 문산읍 임진각로 148-73,#곤돌라 #관광지 #파주 #파주임진각평화곤돌라 #평화,DC046,P246,37.8914503150005,126.740279546575,LC001,"WT001, WT002, WT003, WT004","VW001, VW002","AC001, AC005, AC006"
246,5,말똥도넛 디저트타운,경기도 파주시 지목로 137,#가볼래터 #도넛 #디저트 #디저트맛집 #여행구독 #음식 #카페 #파주,DC046,P247,37.7303740090292,126.704533350838,LC001,"WT001, WT002, WT003, WT004","VW001, VW002","AC001, AC005, AC006"
247,1,화암사(고성),강원특별자치도 고성군 토성면 화암사길 100,#2024_여행가는달과함께하는_발도장여행지 #가족과함께 #강원권 #고성화암사 #관광지 #불교 #불교문화 #불교사찰 #사찰 #사찰여행 #역사 #연중개방 #자연환경 #전통차 #종교 #한국불교 #화암사 #휴식공간 #휴식여행 #휴식하기 #휴식하기좋은곳,DC047,P248,38.2263035536854,128.471142957894,LC002,"WT001, WT002, WT004, WT005","VW001, VW002, VW004, VW006","AC001, AC002, AC003, AC004, AC006"
248,2,해산전망대,강원특별자치도 화천군 화천읍 동촌리 산11-7,#경치좋은곳 #관광지 #산책길 #산책하기 #산책하기좋은곳 #자연속으로 #자연여행 #자연좋은곳 #자연풍경 #자연환경 #휴식공간 #휴식여행 #휴식하기 #휴식하기좋은곳,DC047,P249,38.1905004135509,127.816928076441,LC002,"WT001, WT002, WT004, WT005","VW001, VW002, VW004, VW006","AC001, AC002, AC003, AC004, AC006"
249,3,박수근미술관,강원특별자치도 양구군 양구읍 박수근로 265-15,#DMZ #강원권 #기차여행 #나홀로여행 #단체관람 #당일치기여행 #문화시설 #미술관 #박수근미술관 #생태여행 #아이와함께 #안보여행 #양구군립미술관 #예술 #전시 #전시관 #친구와함께 #평화누리길 #평화생태관광,DC047,P250,38.0961751137205,127.981615832024,LC002,"WT001, WT002, WT004, WT005","VW001, VW002, VW004, VW006","AC001, AC002, AC003, AC004, AC006"
250,4,고석정 꽃밭,강원특별자치도 철원군 동송읍 태봉로 1769,#고석정 #관광지 #구절초 #꽃밭 #맨드라미 #백일홍 #사진찍기좋은곳 #철원가볼만한곳 #코스모스 #해바라기,DC047,P251,38.1882273230829,127.295506161815,LC002,"WT001, WT002, WT004, WT005","VW001, VW002, VW004, VW006","AC001, AC002, AC003, AC004, AC006"
251,5,평화의댐(화천),강원특별자치도 화천군 화천읍 평화로 3481-18,#가족여행 #강원권 #관광지 #아이와함께 #자연 #평화의댐 #화천가볼만한곳,DC047,P252,38.2136611859135,127.846159229875,LC002,"WT001, WT002, WT004, WT005","VW001, VW002, VW004, VW006","AC001, AC002, AC003, AC004, AC006"
252,6,양구 수목원,강원특별자치도 양구군 동면 숨골로310번길 131,#가족 #가족나들이 #가족체험 #관광지 #수목원 #아이와함게 #아이와함께가기좋은 #양구가볼만한곳 #양구수목원,DC047,P253,38.1899741543712,128.074030282585,LC002,"WT001, WT002, WT004, WT005","VW001, VW002, VW004, VW006","AC001, AC002, AC003, AC004, AC006"
253,7,소이산,강원특별자치도 철원군 철원읍 관전리,#관광지 #산 #철원군,DC047,P254,38.2497815742604,127.202198569735,LC002,"WT001, WT002, WT004, WT005","VW001, VW002, VW004, VW006","AC001, AC002, AC003, AC004, AC006"
254,8,미시령옛길,강원특별자치도 고성군 토성면 미시령옛길,#강원도여행 #고성관광 #드라이브 #레포츠 #미시령고개 #인제관광,DC047,P255,38.2187296,128.4127709,LC002,"WT001, WT002, WT004, WT005","VW001, VW002, VW004, VW006","AC001, AC002, AC003, AC004, AC006"
255,1,백제불교최초도래지,전라남도 영광군 법성면 백제문화로 203,#가족여행 #관광지 #기차여행 #나들이 #백제불교최초도래지 #사찰&산사 #아이와함께 #역사 #자연좋은곳 #전라권 #전통&역사문화체험 #체험학습 #친구와함께 #힐링,DC048,P256,35.3619446212377,126.431134890485,LC007,"WT001, WT002, WT003, WT004","VW001, VW002, VW003, VW004, VW006","AC001, AC003, AC004, AC005, AC006"
256,2,백수해안도로,전라남도 영광군 백수읍 해안로 957,#2024_여행가는달과함께하는_발도장여행지 #경치좋은곳 #관광지 #드라이브여행 #드라이브코스 #드라이브코스추천 #바다경치 #백수해안도로 #연인과함께 #이른봄여행 #자연 #전라권 #추천드라이브코스 #풍경좋은곳 #해안도로 #해안드라이브 #해안드라이브코스 #해안절경 #휴식여행 #휴식하기좋은곳,DC048,P257,35.353731926146,126.38928135481,LC007,"WT001, WT002, WT003, WT004","VW001, VW002, VW003, VW004, VW006","AC001, AC003, AC004, AC005, AC006"
257,3,백수해안도로,전라남도 영광군 백수읍 해안로 957,#2024_여행가는달과함께하는_발도장여행지 #경치좋은곳 #관광지 #드라이브여행 #드라이브코스 #드라이브코스추천 #바다경치 #백수해안도로 #연인과함께 #이른봄여행 #자연 #전라권 #추천드라이브코스 #풍경좋은곳 #해안도로 #해안드라이브 #해안드라이브코스 #해안절경 #휴식여행 #휴식하기좋은곳,DC048,P258,35.353731926146,126.38928135481,LC007,"WT001, WT002, WT003, WT004","VW001, VW002, VW003, VW004, VW006","AC001, AC003, AC004, AC005, AC006"
258,4,내산서원,전라남도 영광군 불갑면 강항로 101,#관광지 #역사 #역사공부 #역사관광지 #역사를품은곳 #역사문화관광 #역사문화재 #역사속 #역사속으로 #역사여행 #역사유적 #역사이야기 #역사탐험 #영광문화재 #영광서원 #영광여행 #영광여행추천 #전라남도여행 #전라남도여행지추천,DC048,P259,35.2118482238982,126.517909689703,LC007,"WT001, WT002, WT003, WT004","VW001, VW002, VW003, VW004, VW006","AC001, AC003, AC004, AC005, AC006"
259,5,영광 법성진 숲쟁이,전라남도 영광군 법성면 법성리 821-1,#가족여행 #관광지 #기차여행 #나들이 #아이와함께 #연인과함께 #영광명승 #영광명승지 #영광법성진 #영광법성진성 #영광법성진숲쟁이 #영광법성포 #영광법성포굴비거리 #영광숲쟁이 #영광여행 #영광여행추천 #자연좋은곳 #전라권 #전라남도여행 #전라남도여행지추천 #체험학습 #친구와함께 #힐링,DC048,P260,35.3652804418754,126.443927655211,LC007,"WT001, WT002, WT003, WT004","VW001, VW002, VW003, VW004, VW006","AC001, AC003, AC004, AC005, AC006"
260,6,칠산타워,전라남도 영광군 염산면 향화로 2-10,#감성사진 #경치여행 #경치좋은곳 #관광지 #노을맛집 #바다경치 #바다내음 #사진찍기 #사진찍기좋은곳 #사진촬영명소,DC048,P261,35.1686337149423,126.360306734241,LC007,"WT001, WT002, WT003, WT004","VW001, VW002, VW003, VW004, VW006","AC001, AC003, AC004, AC005, AC006"
261,7,영광 법성진 숲쟁이,전라남도 영광군 법성면 법성리 821-1,#가족여행 #관광지 #기차여행 #나들이 #아이와함께 #연인과함께 #영광명승 #영광명승지 #영광법성진 #영광법성진성 #영광법성진숲쟁이 #영광법성포 #영광법성포굴비거리 #영광숲쟁이 #영광여행 #영광여행추천 #자연좋은곳 #전라권 #전라남도여행 #전라남도여행지추천 #체험학습 #친구와함께 #힐링,DC048,P262,35.3652804418754,126.443927655211,LC007,"WT001, WT002, WT003, WT004","VW001, VW002, VW003, VW004, VW006","AC001, AC003, AC004, AC005, AC006"
262,8,백제불교최초도래지,전라남도 영광군 법성면 백제문화로 203,#가족여행 #관광지 #기차여행 #나들이 #백제불교최초도래지 #사찰&산사 #아이와함께 #역사 #자연좋은곳 #전라권 #전통&역사문화체험 #체험학습 #친구와함께 #힐링,DC048,P263,35.3619446212377,126.431134890485,LC007,"WT001, WT002, WT003, WT004","VW001, VW002, VW003, VW004, VW006","AC001, AC003, AC004, AC005, AC006"
263,9,칠산타워,전라남도 영광군 염산면 향화로 2-10,#감성사진 #경치여행 #경치좋은곳 #관광지 #노을맛집 #바다경치 #바다내음 #사진찍기 #사진찍기좋은곳 #사진촬영명소,DC048,P264,35.1686337149423,126.360306734241,LC007,"WT001, WT002, WT003, WT004","VW001, VW002, VW003, VW004, VW006","AC001, AC003, AC004, AC005, AC006"
264,10,내산서원,전라남도 영광군 불갑면 강항로 101,#관광지 #역사 #역사공부 #역사관광지 #역사를품은곳 #역사문화관광 #역사문화재 #역사속 #역사속으로 #역사여행 #역사유적 #역사이야기 #역사탐험 #영광문화재 #영광서원 #영광여행 #영광여행추천 #전라남도여행 #전라남도여행지추천,DC048,P265,35.2118482238982,126.517909689703,LC007,"WT001, WT002, WT003, WT004","VW001, VW002, VW003, VW004, VW006","AC001, AC003, AC004, AC005, AC006"
265,1,선암사 [유네스코 세계유산],전라남도 순천시 승주읍 선암사길 450,#2024_여행가는달과함께하는_발도장여행지 #가족여행 #관광지 #교과서속여행 #불교 #불교문화 #사찰 #사찰&산사 #사찰여행 #선암사 #선암사(순천) #승선교 #아이와함께 #역사 #역사유적지 #유네스코 #유네스코세계문화유산 #유네스코세계유산 #자연좋은곳 #전통사찰 #전통역사문화체험 #종교 #친구와함께 #템플스테이 #한국불교,DC049,P266,34.9961821309022,127.327355954493,LC007,"WT001, WT002, WT004","VW001, VW004, VW006, VW007","AC001, AC002, AC003, AC004"
266,2,순천전통야생차체험관,전라남도 순천시 승주읍 선암사길 450-1,#가족과함께 #가족여행 #관광지 #다도체험 #순천야생차 #순천여행 #순천여행가볼만한곳 #순천여행추천 #순천웰빙공간 #순천전통야생차체험관 #순천체험공간 #순천한옥체험 #아이와함께 #이색체험 #자연좋은곳 #자연환경 #전라권 #전라남도여행 #체험 #체험프로그램 #휴식공간 #휴식여행 #휴식하기 #휴식하기좋은곳,DC049,P267,34.9948984835674,127.334070644838,LC007,"WT001, WT002, WT004","VW001, VW004, VW006, VW007","AC001, AC002, AC003, AC004"
267,3,송광사(순천),전라남도 순천시 송광면 송광사안길 100,#가족여행 #관광지 #교과서속여행 #불교 #불교문화 #불교사찰 #사찰 #사찰여행 #산사 #송광사 #아이와함께 #역사 #역사유적지 #전통사찰 #전통역사문화체험 #종교 #친구와함께 #템플스테이 #한국불교 #휴식공간 #휴식여행 #휴식하기 #휴식하기좋은곳 #힐링 #힐링&휴양,DC049,P268,35.0023635450929,127.274870647975,LC007,"WT001, WT002, WT004","VW001, VW004, VW006, VW007","AC001, AC002, AC003, AC004"
268,4,순천 낙안읍성,전라남도 순천시 낙안면 평촌리,#2024_여행가는달과함께하는_발도장여행지 #3대읍성 #CNN선정 #관광지 #낙안읍성 #드라마촬영지 #순천낙안읍성 #역사 #역사관광 #역사관광지 #역사를품은곳 #역사문화재 #역사속 #역사속으로 #역사여행 #역사유적지 #역사이야기 #역사적 #역사탐험 #읍성 #전라권,DC049,P269,34.8926561013448,127.338243910273,LC007,"WT001, WT002, WT004","VW001, VW004, VW006, VW007","AC001, AC002, AC003, AC004"
269,5,"순천만습지 (구, 순천만자연생태공원)",전라남도 순천시 순천만길 513-25,#2011 #2022 #2022한국관광의별 #2024_여행가는달과함께하는_발도장여행지 #21_22한국관광100선 #23_24한국관광100선 #가족여행 #걷기길 #관광지 #생태관광 #생태관광지 #수상내역 #순천만습지 #순천만자연생태공원 #자연 #자연좋은곳 #장애물없는 관광환경 우수시설 부문 #전라권 #전망좋은곳 #친환경여행 #한국관광100선 #한국관광의별,DC049,P270,34.8857970100738,127.5092833426,LC007,"WT001, WT002, WT004","VW001, VW004, VW006, VW007","AC001, AC002, AC003, AC004"
270,6,순천만 국가정원,전라남도 순천시 국가정원1호길 47,#2024_여행가는달과함께하는_발도장여행지 #가족과함께 #가족여행 #걷기여행 #관광지 #봄나들이 #산책하기좋은곳 #순천만국가정원 #아이와함께 #이색체험 #자연좋은곳 #자연환경 #전라권 #친환경여행,DC049,P271,34.928871680184,127.500801495864,LC007,"WT001, WT002, WT004","VW001, VW004, VW006, VW007","AC001, AC002, AC003, AC004"
271,1,벽계(찰비)계곡,경상남도 의령군 궁류면 벽계로 201,#경상권 #경치좋은곳 #관광지 #민물낚시 #벽계계곡 #야영 #자연 #자연좋은곳,DC050,P272,35.4260494898741,128.208094179887,LC005,"WT001, WT002, WT004","VW001, VW002, VW003, VW004, VW006, VW008","AC001, AC002, AC003, AC004, AC005"
272,2,한우산,경상남도 의령군 궁류면 벽계리,#경상권 #관광지 #등산 #레포츠 #사계절 #영화촬영지 #의령한우산 #자연 #자연관광 #자연속으로 #자연여행 #자연좋은곳 #자연풍경 #자연환경 #한우산 #휴식공간 #휴식여행 #휴식하기 #휴식하기좋은곳 #힐링여행,DC050,P273,35.4144971152107,128.207887463166,LC005,"WT001, WT002, WT004","VW001, VW002, VW003, VW004, VW006, VW008","AC001, AC002, AC003, AC004, AC005"
273,3,일붕사(의령),경상남도 의령군 궁류면 청정로 1202-15,#2024_여행가는달과함께하는_발도장여행지 #가족여행 #경상권 #관광지 #기차여행 #나들이 #동굴법당 #봉황산 #불교 #불교문화 #성덕암 #아이와함께 #역사 #의령사찰 #종교 #체험학습 #친구와함께 #한국불교 #힐링,DC050,P274,35.4355636564083,128.240146699079,LC005,"WT001, WT002, WT004","VW001, VW002, VW003, VW004, VW006, VW008","AC001, AC002, AC003, AC004, AC005"
274,4,황소걸음식당,경상북도 영주시 조암로 11,#맛집 #영주맛집 #음식 #음식점 #한식 #한우곰탕 #한우곰탕 #한우불고기 #한우숯불구이 #한우육회가성비_갑 #한우차돌박이 #황소걸음식당,DC050,P275,36.8003921807466,128.63160320668,LC006,"WT001, WT002, WT004","VW001, VW002, VW003, VW004, VW006, VW008","AC001, AC002, AC003, AC004, AC005"
275,5,창녕 우포늪,경상남도 창녕군 유어면 우포늪길 220,#2024_여행가는달과함께하는_발도장여행지 #21_22한국관광100선 #걷기길 #경상권 #공룡발자국 #관광지 #내륙습지 #람사르협약 #백조도래지 #생태관광 #생태관광자원 부문 #생태관광지 #생태습지 #우포늪 #자연 #자연사박물관 #자연좋은곳 #전망좋은곳 #천연기념물 #친환경여행 #한국관광100선 #한국관광의별,DC050,P276,35.5445608846934,128.41911947802,LC005,"WT001, WT002, WT004","VW001, VW002, VW003, VW004, VW006, VW008","AC001, AC002, AC003, AC004, AC005"
276,6,봉황대(의령),경상남도 의령군 궁류면 평촌리 산 62,#가족과함께 #가족여행 #경상권 #경치좋은곳 #관광지 #기암절벽 #단풍여행 #봉황대 #사계절 #아이와함께 #의령3경 #의령가볼만한곳 #자연 #자연관광지 #자연발생 #자연여행 #자연좋은곳 #자연환경 #주말추천여행지,DC050,P277,35.4355654979096,128.24141444546,LC005,"WT001, WT002, WT004","VW001, VW002, VW003, VW004, VW006, VW008","AC001, AC002, AC003, AC004, AC005"
277,1,할매보리밥,전라남도 영광군 불갑사로 351,#음식,DC051,P278,35.2035932481132,126.538559160587,LC007,"WT001, WT002, WT003, WT004","VW001, VW002, VW003, VW004, VW006, VW008","AC001, AC002, AC003, AC004, AC005"
278,2,불갑저수지 수변공원,전라남도 영광군 불갑면 방마로 151,#가족여행 #걷기좋은길 #관광지 #사계절 #사찰&산사 #산책길 #산책하기 #산책하기좋은곳 #영광여행 #자연좋은곳 #전라권 #전라남도여행 #체험학습 #친환경여행,DC051,P279,35.221497599952,126.514230920994,LC007,"WT001, WT002, WT003, WT004","VW001, VW002, VW003, VW004, VW006, VW008","AC001, AC002, AC003, AC004, AC005"
279,3,화천월지단차원 (전 불갑다향),전라남도 영광군 불갑사로 167,#가족과함께 #관광두레 #관광지 #농촌교육 #다도체험 #영광군 #전남_관광두레 #체험프로그램 #친구와함께,DC051,P280,35.2174507013667,126.528949738366,LC007,"WT001, WT002, WT003, WT004","VW001, VW002, VW003, VW004, VW006, VW008","AC001, AC002, AC003, AC004, AC005"
280,4,백수해안도로,전라남도 영광군 백수읍 해안로 957,#2024_여행가는달과함께하는_발도장여행지 #경치좋은곳 #관광지 #드라이브여행 #드라이브코스 #드라이브코스추천 #바다경치 #백수해안도로 #연인과함께 #이른봄여행 #자연 #전라권 #추천드라이브코스 #풍경좋은곳 #해안도로 #해안드라이브 #해안드라이브코스 #해안절경 #휴식여행 #휴식하기좋은곳,DC051,P281,35.353731926146,126.38928135481,LC007,"WT001, WT002, WT003, WT004","VW001, VW002, VW003, VW004, VW006, VW008","AC001, AC002, AC003, AC004, AC005"
281,5,법성포,전라남도 영광군 법성면 법성리,#경치좋은곳 #관광지 #바다경치 #바다내음 #법성포 #자연 #자연좋은곳 #자연환경 #전라권 #포구 #항구,DC051,P282,35.3652682531802,126.450068335007,LC007,"WT001, WT002, WT003, WT004","VW001, VW002, VW003, VW004, VW006, VW008","AC001, AC002, AC003, AC004, AC005"
282,6,숲쟁이공원,전라남도 영광군 법성면 진내리,#걷기여행 #관광지 #영광9경 #영광공원 #영광여행 #전라남도여행 #힐링여행,DC051,P283,35.3669070390814,126.434102157175,LC007,"WT001, WT002, WT003, WT004","VW001, VW002, VW003, VW004, VW006, VW008","AC001, AC002, AC003, AC004, AC005"
283,7,숲쟁이꽃동산,전라남도 영광군 백제문화로 67,#관광지,DC051,P284,35.3644850486412,126.43460738044,LC007,"WT001, WT002, WT003, WT004","VW001, VW002, VW003, VW004, VW006, VW008","AC001, AC002, AC003, AC004, AC005"
284,8,백제불교최초도래지,전라남도 영광군 법성면 백제문화로 203,#가족여행 #관광지 #기차여행 #나들이 #백제불교최초도래지 #사찰&산사 #아이와함께 #역사 #자연좋은곳 #전라권 #전통&역사문화체험 #체험학습 #친구와함께 #힐링,DC051,P285,35.3619446212377,126.431134890485,LC007,"WT001, WT002, WT003, WT004","VW001, VW002, VW003, VW004, VW006, VW008","AC001, AC002, AC003, AC004, AC005"
285,9,월봉재,전라남도 영광군 굴비로 87,#음식,DC051,P286,35.3562831625854,126.449225330339,LC007,"WT001, WT002, WT003, WT004","VW001, VW002, VW003, VW004, VW006, VW008","AC001, AC002, AC003, AC004, AC005"
286,10,물무산 행복숲,전라남도 영광군 영광읍 물무로 219,#관광지,DC051,P287,35.2703141685514,126.516783129023,LC007,"WT001, WT002, WT003, WT004","VW001, VW002, VW003, VW004, VW006, VW008","AC001, AC002, AC003, AC004, AC005"
287,11,영광향교,전라남도 영광군 영광읍 향교길 32,#고려시대향교 #관광지 #역사 #역사공부 #역사관광지 #역사를품은곳 #역사문화재 #역사문화재 #역사속 #역사속으로 #역사유적 #역사유적지 #역사이야기 #역사탐험 #영광고려시대문화재 #영광문화재 #영광여행 #영광여행추천 #영광향교 #전라권 #전라남도여행 #전라남도유형문화재,DC051,P288,35.2739857208922,126.520037617586,LC007,"WT001, WT002, WT003, WT004","VW001, VW002, VW003, VW004, VW006, VW008","AC001, AC002, AC003, AC004, AC005"
288,1,영덕 안동권씨 옥천재사,경상북도 영덕군 창수면 장육사길 353,#관광지 #역사 #역사공부 #역사관광지 #역사를품은곳 #역사문화재 #역사속 #역사속으로 #역사유적 #역사유적지 #역사이야기 #역사탐방 #역사탐험 #영덕옥천재사 #영덕화수루 #조선시대누각,DC052,P289,36.5966697597818,129.321873962174,LC006,"WT001, WT002","VW001, VW004, VW006, VW007","AC001, AC002, AC004"
289,2,괴시리 전통마을,경상북도 영덕군 영해면 호지마을1길 16-1,#가족여행 #경상권 #고택마을 #관광지 #괴시리 #민속문화재 #역사 #역사공부 #역사관광지 #역사를품은곳 #역사문화재 #역사속 #역사속으로 #역사이야기 #역사탐방 #역사탐험 #영덕관광 #전통마을 #체험학습 #한옥스테이,DC052,P290,36.543146067981,129.41662202089,LC006,"WT001, WT002","VW001, VW004, VW006, VW007","AC001, AC002, AC004"
290,3,영해 3.1 의거탑,경상북도 영덕군 영해면 성내리,#3.1운동 #관광지 #산책길 #산책하기 #산책하기좋은곳 #아이와함께 #애국심 #애국정신 #역사 #역사를품은곳 #역사속 #역사속으로 #역사여행 #역사이야기 #역사탐방 #역사탐험 #항일운동,DC052,P291,36.5328547343441,129.413081120793,LC006,"WT001, WT002","VW001, VW004, VW006, VW007","AC001, AC002, AC004"
291,4,장육사,경상북도 영덕군 창수면 장육사1길 172,#관광지 #불교 #불교문화 #불교사찰 #사찰여행 #역사 #자연좋은곳 #자연환경 #전통사찰 #한국불교 #휴식공간 #휴식여행 #휴식하기 #휴식하기좋은곳,DC052,P292,36.5987754129972,129.3018618747,LC006,"WT001, WT002","VW001, VW004, VW006, VW007","AC001, AC002, AC004"
292,5,유금사(영덕),경상북도 영덕군 병곡면 유금길 208-5,#관광지 #불교 #불교문화 #사찰 #사찰여행 #역사 #연중무휴 #영덕유금사 #영덕유금사삼층석탑 #자연환경 #전통사찰 #종교 #한국불교 #휴식하기좋은곳,DC052,P293,36.647267872452,129.368840841687,LC006,"WT001, WT002","VW001, VW004, VW006, VW007","AC001, AC002, AC004"
293,1,팔당호,경기도 광주시 남종면,#경치좋은곳 #관광지 #산책길 #산책하기 #산책하기좋은곳 #자연 #자연속으로 #자연여행 #자연좋은곳 #자연풍경 #자연환경 #친구와함께,DC053,P294,37.494164363366,127.301699267454,LC001,"WT001, WT002, WT004","VW001, VW002, VW004","AC001, AC002, AC003, AC004, AC005"
294,2,천진암 성지,경기도 광주시 퇴촌면 천진암로 1203,#가족여행 #관광지 #교과서속여행 #나들이 #당일치기여행 #드라이브여행 #서울근교여행 #수도권 #아이와함께 #역사 #전통&역사문화체험 #천진암성지 #체험학습 #친구와함께 #힐링,DC053,P295,37.4235731251017,127.388398918509,LC001,"WT001, WT002, WT004","VW001, VW002, VW004","AC001, AC002, AC003, AC004, AC005"
295,3,강마을다람쥐,경기도 광주시 남종면 태허정로 556,#강마을다람쥐 #경기광주맛집 #경기광주한정식 #광주강마을다람쥐 #광주맛집 #광주한식당 #도토리국수 #도토리묵 #도토리묵밥 #도토리묵밥 #도토리묵사발 #도토리요리 #도토리전병 #도토리전병 #맛집 #수도권 #연중무휴 #음식 #팔당호맛집 #한식,DC053,P296,37.4928879793256,127.282918011709,LC001,"WT001, WT002, WT004","VW001, VW002, VW004","AC001, AC002, AC003, AC004, AC005"
296,4,박물관 얼굴,경기도 광주시 남종면 분원길 3-6,#가족여행 #경기광주가볼만한곳 #경기광주관광 #경기광주박물관 #경기광주여행 #경기광주전시회 #경기권 #경기도 광주 #관석헌 #그림체험 #문화시설 #박물관얼굴 #서울근교 #인형전시 #체험학습,DC053,P297,37.4939574953744,127.302050905982,LC001,"WT001, WT002, WT004","VW001, VW002, VW004","AC001, AC002, AC003, AC004, AC005"
297,5,남한산성도립공원 [유네스코 세계유산],경기도 광주시 남한산성면 남한산성로 731,#가족여행 #관광지 #나들이 #남한산성도립공원 #드라이브여행 #서울근교여행 #수도권 #아이와함께 #유네스코세계문화유산 #자연 #전통&역사문화체험 #체험학습 #친구와함께 #힐링,DC053,P298,37.4766964501253,127.188418117775,LC001,"WT001, WT002, WT004","VW001, VW002, VW004","AC001, AC002, AC003, AC004, AC005"
298,1,강동 해수온천,울산광역시 북구 동해안로 1418,#2024_여행가는달과함께하는_발도장여행지 #가족과함께 #강동해수온천 #경상권 #관광지 #연중무휴 #온천 #휴식공간 #휴식여행 #휴식하기 #휴식하기좋은곳 #휴양관광지 #힐링&여행 #힐링&휴양 #힐링&휴양여행,DC054,P299,35.6137742611851,129.450502633309,LC004,"WT002, WT003, WT004","VW001, VW002, VW003",AC001
299,2,강동 화암 주상절리,울산광역시 북구 산하동 952-1번지 일원,#2024_여행가는달과함께하는_발도장여행지 #강동화암주상절리 #경상권 #경치좋은곳 #관광지 #바다풍경 #울산광역시기념물 #자연 #자연좋은곳 #해안절경,DC054,P300,35.6341568308047,129.442446993402,LC004,"WT002, WT003, WT004","VW001, VW002, VW003",AC001
300,3,강동몽돌해변,울산광역시 북구 산하동,#강동몽돌해변 #관광지 #바다풍경 #연인과함께 #연중무휴 #자연 #자연속으로 #자연여행 #자연좋은곳 #자연풍경 #자연환경,DC054,P301,35.6317109259186,129.429027518249,LC004,"WT002, WT003, WT004","VW001, VW002, VW003",AC001
301,4,신명·정자해변,울산광역시 북구 동해안로 1801,#가족여행 #경상권 #고래등대 #관광지 #바다풍경 #신명해변 #여름방학가볼만한곳 #여름여행 #여름휴가 #연인과함께 #울산일출명소 #이색등대 #일출명소 #자연 #자연좋은곳 #전망좋은곳 #정자해변 #친구와함께,DC054,P302,35.644230871651,129.440440321121,LC004,"WT002, WT003, WT004","VW001, VW002, VW003",AC001
302,1,옥정호(물안개길),전북특별자치도 임실군 운암면,#가족여행 #걷기여행 #관광지 #사계절 #아이와함께 #연인과함께 #옥정호(물안개길) #자연 #친구와함께 #피크닉 #힐링&휴양여행,DC055,P303,35.6606460494296,127.160440115153,LC008,"WT001, WT002, WT003, WT004","VW001, VW002, VW004, VW008","AC001, AC002, AC003, AC004, AC005"
303,2,일송정가든,전북특별자치도 임실군 운암면 강운로 1233,#닭백숙 #닭백숙 #맛집 #음식 #임실군,DC055,P304,35.6060142423614,127.110470427271,LC008,"WT001, WT002, WT003, WT004","VW001, VW002, VW004, VW008","AC001, AC002, AC003, AC004, AC005"
304,3,섬진강댐,전북특별자치도 임실군 강진면 옥정호로 608-13,#경치여행 #경치좋은곳 #관광지 #교육여행 #댐 #물문화관 #섬진강 #섬진강댐 #아이와함께 #자연 #전라권,DC055,P305,35.5422845,127.111934,LC008,"WT001, WT002, WT003, WT004","VW001, VW002, VW004, VW008","AC001, AC002, AC003, AC004, AC005"
305,4,구담마을,전북특별자치도 임실군 덕치면 천담1길 49,#가족체험 #관광지 #농촌 #농촌체험 #농촌체험학습 #아이와함께 #자연마을 #자연환경 #체험 #휴식공간 #휴식여행 #휴식하기 #휴식하기좋은곳 #힐링&휴양여행,DC055,P306,35.4923644734683,127.191193588848,LC008,"WT001, WT002, WT003, WT004","VW001, VW002, VW004, VW008","AC001, AC002, AC003, AC004, AC005"
306,1,아바이마을,강원특별자치도 속초시 청호로 122-1,#가족여행 #강원권 #강원도_여행지_추천 #관광지 #문화관광해설사 #속초가볼만한곳 #속초갯배 #속초여행 #숙박 #실향민 #아바이순대국 #영화&드라마촬영지 #오징어순대 #자연 #주말추천여행지 #친구와함께,DC056,P307,38.2006365983324,128.594868017309,LC002,"WT001, WT002, WT004, WT005","VW001, VW002, VW003","AC001, AC003, AC004, AC005"
307,2,88생선구이,강원특별자치도 속초시 중앙부두길 71,#88생선구이 #가족과함께 #강원권 #맛집 #미식여행 #생선구이 #생선구이모둠정식 #속초맛집 #속초여행 #음식,DC056,P308,38.2037445247761,128.591920092727,LC002,"WT001, WT002, WT004, WT005","VW001, VW002, VW003","AC001, AC003, AC004, AC005"
308,3,속초등대전망대,강원특별자치도 속초시 영금정로5길 8-28,#가족과함께 #가족여행 #강원권 #경치여행 #경치좋은곳 #관광지 #바다 #바다경치 #속초가볼만한곳 #속초등대전망대 #아이와함께 #연중무휴 #자연 #전망좋은곳,DC056,P309,38.2136814,128.599997,LC002,"WT001, WT002, WT004, WT005","VW001, VW002, VW003","AC001, AC003, AC004, AC005"
309,4,영랑호,강원특별자치도 속초시 영랑호반길 140,#강원도_여행지_추천 #관광지 #나홀로여행 #문화관광해설사 #생태관광지 #영랑호 #자연 #휴양여행 #힐링 #힐링여행,DC056,P310,38.2142296232005,128.58078554268,LC002,"WT001, WT002, WT004, WT005","VW001, VW002, VW003","AC001, AC003, AC004, AC005"
310,5,영금정,강원특별자치도 속초시 동명항길 35,#2024_여행가는달과함께하는_발도장여행지 #강원권 #경치좋은곳 #관광지 #나들이 #바다낚시 #바다풍경 #야간관광100선 #영금정 #자연좋은곳 #전망좋은곳 #피서여행 #해돋이명소 #해상정자 #해안절경,DC056,P311,38.2121070424096,128.597344846395,LC002,"WT001, WT002, WT004, WT005","VW001, VW002, VW003","AC001, AC003, AC004, AC005"
311,6,아바이마을 갯배,강원특별자치도 속초시 중앙부두길 51,#가족과함께 #가족여행 #가족체험 #강원권 #강원도_여행지_추천 #갯배 #관광지 #속초아바이마을 #아바이마을 #아바이마을갯배 #오징어순대 #이색체험 #체험 #힐링&휴양여행,DC056,P312,38.2028218883287,128.592160732756,LC002,"WT001, WT002, WT004, WT005","VW001, VW002, VW003","AC001, AC003, AC004, AC005"
312,1,충주댐,충청북도 충주시 충주호수로 737,#가족여행 #걷기여행 #경치좋은곳 #관광지 #사계절 #연인과함께 #자연 #자연좋은곳 #충주댐 #충청권 #친환경여행,DC057,P313,37.0044410097334,127.990644874993,LC003,"WT001, WT002, WT003, WT004","VW001, VW002, VW004, VW008","AC001, AC002, AC003, AC004, AC005"
313,2,충주호,충청북도 충주시 동량면 조동리,#2024_여행가는달과함께하는_발도장여행지 #INFP혼행 #가족과함께 #가족여행 #관광지 #나들이 #데이트코스 #레포츠 #아이와함께 #연인과함께 #자연 #자연좋은곳 #청풍호 #충주호 #충주호유람선 #충청권 #친구와함께 #호수 #힐링,DC057,P314,37.0307309169371,127.985503527588,LC003,"WT001, WT002, WT003, WT004","VW001, VW002, VW004, VW008","AC001, AC002, AC003, AC004, AC005"
314,3,충주세계무술박물관,충청북도 충주시 남한강로 24,#2024_여행가는달과함께하는_발도장여행지 #가족여행 #교과서속여행 #문화시설 #미세먼지_피하는_실내여행 #미세먼지_피하는_실내여행 #박물관 #사계절 #실내관광지 #실내관광지 #실내여행지 #실내여행지 #아이와함께 #에너제틱_청춘여행 #예술 #유쾌한_액티비티가_ 있는_청춘여행 #충주세계무술박물관 #충청권,DC057,P315,36.9878303501458,127.905571127149,LC003,"WT001, WT002, WT003, WT004","VW001, VW002, VW004, VW008","AC001, AC002, AC003, AC004, AC005"
315,4,하늘재,충청북도 충주시 수안보면 미륵송계로 614,#가족과함께 #걷기좋은곳 #관광지 #산책 #산책코스 #산책하기좋은곳 #자연 #친구와함께 #하늘재 #하늘재트레킹,DC057,P316,36.8295425511695,128.0679559577,LC003,"WT001, WT002, WT003, WT004","VW001, VW002, VW004, VW008","AC001, AC002, AC003, AC004, AC005"
316,5,충주댐가든,충청북도 충주시 충주호수로 590,#가마솥갈비탕 #맛집 #매운탕 #매운탕 #불고기정식 #송어회 #음식 #충주시,DC057,P317,37.0110085353994,127.978950892276,LC003,"WT001, WT002, WT003, WT004","VW001, VW002, VW004, VW008","AC001, AC002, AC003, AC004, AC005"
317,6,충주 탄금대와 탄금대공원,충청북도 충주시 탄금대안길 105,#2024_여행가는달과함께하는_발도장여행지 #가족여행 #관광지 #산책하기좋은곳 #역사 #역사관광지 #역사문화재 #자연환경 #충북 #충주 탄금대와 탄금대공원 #혼자여행 #휴식공간 #휴식여행 #휴식하기 #휴식하기좋은곳,DC057,P318,36.9882514881239,127.898291705828,LC003,"WT001, WT002, WT003, WT004","VW001, VW002, VW004, VW008","AC001, AC002, AC003, AC004, AC005"
318,1,홍성방조제,충청남도 홍성군 서부면,#관광지 #바다풍경 #방조제 #자연 #충청권 #홍성 #홍성방조제 #홍성여행 #힐링,DC058,P319,36.5803273092588,126.51723142167,LC003,"WT002, WT003","VW001, VW002, VW003","AC001, AC005, AC006"
319,2,남당항,충청남도 홍성군 서부면 남당리,#가족과함께 #관광지 #남당항 #대하 #대하축제 #미식여행 #바다풍경 #새조개 #새조개축제 #수산물 #자연 #죽도 #천수만 #철새도래지 #충청권 #홍성남당항,DC058,P320,36.5398850176414,126.479723667165,LC003,"WT002, WT003","VW001, VW002, VW003","AC001, AC005, AC006"
320,3,서산A지구방조제,충청남도 홍성군 서부면 남당항로,#간월도 #관광지 #서산간척지 #서산방조제 #자연 #조류탐사 #천수만 #철새도래지,DC058,P321,36.6033954,126.432551,LC003,"WT002, WT003","VW001, VW002, VW003","AC001, AC005, AC006"
321,4,궁리포구,충청남도 홍성군 서부면 남당항로 853-5,#관광지 #궁리포구 #바다경치 #바다내음 #일몰여행 #자연 #자연좋은곳 #자연환경 #천수만 #충청권 #포구 #홍성12경 #홍성명품낙조 #홍성포구,DC058,P322,36.5889216217204,126.457733338553,LC003,"WT002, WT003","VW001, VW002, VW003","AC001, AC005, AC006"
322,5,속동전망대,충청남도 홍성군 서부면 남당항로 689,#갯벌 #경치좋은곳 #관광지 #데이트코스 #바다경치 #바다전망 #바다전망대 #사진찍기좋은곳 #사진촬영 #속동갯벌 #연인과함께 #자연좋은곳 #자연환경 #전망대 #커플데이트 #타이타닉포토존 #해안전망대 #홍성속동전망대,DC058,P323,36.5770226953143,126.464592720503,LC003,"WT002, WT003","VW001, VW002, VW003","AC001, AC005, AC006"
323,1,우석헌자연사박물관,경기도 남양주시 진접읍 금강로 1095,#공룡 #교과서속여행 #남양주 #남양주시 #문화시설 #박물관 #사계절 #수도권 #실내여행지 #아이들과가기좋은곳 #아이와함께 #우석헌자연사박물관 #이색체험 #자연사박물관 #전시관 #주말나들이 #체험학습 #화석,DC059,P324,37.6980320052266,127.160818819056,LC001,"WT001, WT002, WT003","VW001, VW002, VW004, VW008","AC001, AC002, AC003, AC004, AC005"
324,2,화도푸른물센터 피아노폭포,경기도 남양주시 화도읍 폭포로 562,#가족여행 #경치좋은곳 #관광지 #남양주 #남양주나들이 #남양주놀거리 #남양주몰놀이장 #당일치기여행 #몰놀이장 #산책하기좋은곳 #수도권 #아이와함께 #어린이물놀이장 #이색체험 #인공폭포 #자연 #자연환경 #전시관 #체험학습 #피아노폭포 #화도나들이 #화도하수처리장피아노폭포 #힐링산책,DC059,P325,37.6316342,127.347001,LC001,"WT001, WT002, WT003","VW001, VW002, VW004, VW008","AC001, AC002, AC003, AC004, AC005"
325,3,산들소리,경기도 남양주시 불암산로59번길 48-31,#가족여행 #관광지 #데이트코스 #브런치카페 #사계절 #산들소리수목원 #서울근교여행 #수도권 #아이와함께 #연인과함께 #자연 #자연좋은곳 #힐링,DC059,P326,37.6510750324296,127.101551671701,LC001,"WT001, WT002, WT003","VW001, VW002, VW004, VW008","AC001, AC002, AC003, AC004, AC005"
326,1,금강식물원,부산광역시 금정구 장전동 산 43-1,#관광지 #금강공원 #남녀노소 #부산금강공원 #부산식물원 #식물원 #아이와함께 #자연 #자연좋은곳 #자연환경 #휴식여행 #휴식하기좋은곳 #힐링여행,DC060,P327,35.2264314041591,129.077093495653,LC004,"WT001, WT002, WT004","VW001, VW002, VW003, VW004, VW006","AC001, AC004, AC005"
327,2,범어사(부산),부산광역시 금정구 범어사로 250,#가족여행 #관광지 #금정산범어사 #범어사 #부산범어사 #사찰&산사 #아이와함께 #역사 #역사유적지 #자연좋은곳 #전통&역사문화체험 #조계종제14교구 #친구와함께 #템플스테이 #휴식공간 #휴식여행 #휴식하기 #휴식하기좋은곳,DC060,P328,35.2830426366443,129.067620787638,LC004,"WT001, WT002, WT004","VW001, VW002, VW003, VW004, VW006","AC001, AC004, AC005"
328,3,동래별장,부산광역시 동래구 금강로123번길 12,#가족식사_추천 #궁중요리 #궁중한식당 #동래별장 #맛집 #음식 #전통궁중한정식 #한정식,DC060,P329,35.2208399980125,129.079262893829,LC004,"WT001, WT002, WT004","VW001, VW002, VW003, VW004, VW006","AC001, AC004, AC005"
329,4,동래온천 노천족탕,부산광역시 동래구 금강공원로26번길 21,#가족여행 #경상권 #관광지 #남녀노소 #동래노천족탕 #동래온천 #동래온천노천족탕 #동래온천지구 #부산가볼만한곳 #부산온천 #이색체험 #휴식공간 #휴식여행 #휴식하기 #휴식하기좋은곳 #힐링&휴양 #힐링&휴양여행,DC060,P330,35.2200018527711,129.081432179083,LC004,"WT001, WT002, WT004","VW001, VW002, VW003, VW004, VW006","AC001, AC004, AC005"
330,5,금정산 (부산 국가지질공원),부산광역시 금정구 금성동,#경북_동해안_국가지질공원 #경치좋은곳 #관광지 #국가지질공원 #금정산국가지질공원 #부산지오파크 #부산지질공원 #자연 #자연관광지 #자연발생 #자연속으로 #자연여행 #자연좋은곳 #자연환경 #지질공원 #지질명소,DC060,P331,35.2503324603387,129.056142876022,LC004,"WT001, WT002, WT004","VW001, VW002, VW003, VW004, VW006","AC001, AC004, AC005"
331,1,진도 남도진성,전라남도 진도군 임회면 남동리,#관광지 #역사 #역사공부 #역사관광지 #역사를품은곳 #역사문화재 #역사속 #역사속으로 #역사여행 #역사유적 #역사유적지 #역사이야기 #역사탐방 #역사탐험 #진도남도석성 #진도여행,DC061,P332,34.3730964442317,126.169516009209,LC007,"WT001, WT002, WT003, WT004","VW001, VW003, VW004","AC001, AC004"
332,2,가계해수욕장,전라남도 진도군 고군면 신비의바닷길 47,#가계해변 #가족여행 #관광지 #바다풍경 #아이와함께 #여름방학가볼만한곳 #여름여행 #여름휴가 #연인과함께 #자연 #친구와함께 #피서여행,DC061,P333,34.4354792988014,126.354706273774,LC007,"WT001, WT002, WT003, WT004","VW001, VW003, VW004","AC001, AC004"
333,3,진도 신비의 바닷길,전라남도 진도군 고군면 신비의바닷길 148,#2024_여행가는달과함께하는_발도장여행지 #가족여행 #관광지 #모세의기적 #신비의바닷길 #아이와함께 #이색체험 #자연 #진도신비의바닷길 #친구와함께,DC061,P334,34.4272243458804,126.351358339902,LC007,"WT001, WT002, WT003, WT004","VW001, VW003, VW004","AC001, AC004"
334,4,죽림어촌체험마을,전라남도 진도군 헌복동길 16 죽림어촌마을특산품판매장,#관광지 #어촌체험 #이색체험 #자연마을 #자연여행 #자연좋은곳 #자연풍경 #자연환경 #전라권 #죽림어촌체험마을 #체험 #체험프로그램 #휴식공간 #휴식여행 #휴식하기 #휴식하기좋은곳,DC061,P335,34.3913717785697,126.259938309669,LC007,"WT001, WT002, WT003, WT004","VW001, VW003, VW004","AC001, AC004"
335,5,정충사 (배중손 사당),전라남도 진도군 임회면 진도대로 4212,#고려항몽 #관광지 #배중손 #배중손사당 #배중손장군 #역사 #역사관광지 #역사를품은곳 #역사문화재 #역사속 #역사속으로 #역사여행 #역사유적 #역사유적지 #역사이야기 #역사탐방 #역사탐험 #용장산성 #용장성 #용장성홍보관 #진도용장성,DC061,P336,34.3694267791881,126.199774213429,LC007,"WT001, WT002, WT003, WT004","VW001, VW003, VW004","AC001, AC004"
336,6,접도,전라남도 진도군 의신면 황모길 81,#관광지 #남망산 #남망산숲길 #자연 #진도남망산 #진도섬여행 #진도접도,DC061,P337,34.3880276464077,126.300574709577,LC007,"WT001, WT002, WT003, WT004","VW001, VW003, VW004","AC001, AC004"
337,1,죽도산,경상북도 영덕군 강구면 강구대게길 47-1,#대게코스요리 #대게탕 #대게회 #맛집 #생선매운탕담백한_맛 #연중무휴 #영덕대게 #영덕맛집 #음식 #죽도산,DC062,P338,36.3590738875393,129.385135633312,LC006,WT003,"VW001, VW002, VW003, VW004",AC005
338,2,강구항,경상북도 영덕군 강구면 강구리 253-51,#강구대게거리 #강구항 #경상권 #관광지 #대게거리 #드라마촬영지 #영덕대게 #자연 #항구,DC062,P339,36.3587601610828,129.391281313436,LC006,WT003,"VW001, VW002, VW003, VW004",AC005
339,3,강구항,경상북도 영덕군 강구면 강구리 253-51,#강구대게거리 #강구항 #경상권 #관광지 #대게거리 #드라마촬영지 #영덕대게 #자연 #항구,DC062,P340,36.3587601610828,129.391281313436,LC006,WT003,"VW001, VW002, VW003, VW004",AC005
340,4,영덕해맞이공원,경상북도 영덕군 영덕읍 영덕대게로 968,#2024_여행가는달과함께하는_발도장여행지 #경상권 #경치좋은곳 #관광지 #데이트코스 #바다풍경 #연인과함께 #연중무휴 #영덕블루로드 #영덕해맞이공원 #자연속으로 #자연좋은곳 #자연풍경 #자연환경 #전망좋은곳 #창포말등대 #해맞이공원 #해맞이여행,DC062,P341,36.4221012996321,129.433050463442,LC006,WT003,"VW001, VW002, VW003, VW004",AC005
341,5,영덕 대소산 봉수대,경상북도 영덕군 축산면 도곡리 산 20,#경상권 #경상북도기념물 #관광지 #봉수대 #역사 #역사여행 #영덕관광 #영덕여행 #일출명소 #조선시대,DC062,P342,36.5179864579421,129.431863715895,LC006,WT003,"VW001, VW002, VW003, VW004",AC005
342,6,죽도산,경상북도 영덕군 강구면 강구대게길 47-1,#대게코스요리 #대게탕 #대게회 #맛집 #생선매운탕담백한_맛 #연중무휴 #영덕대게 #영덕맛집 #음식 #죽도산,DC062,P343,36.3590738875393,129.385135633312,LC006,WT003,"VW001, VW002, VW003, VW004",AC005
343,7,영덕해맞이공원,경상북도 영덕군 영덕읍 영덕대게로 968,#2024_여행가는달과함께하는_발도장여행지 #경상권 #경치좋은곳 #관광지 #데이트코스 #바다풍경 #연인과함께 #연중무휴 #영덕블루로드 #영덕해맞이공원 #자연속으로 #자연좋은곳 #자연풍경 #자연환경 #전망좋은곳 #창포말등대 #해맞이공원 #해맞이여행,DC062,P344,36.4221012996321,129.433050463442,LC006,WT003,"VW001, VW002, VW003, VW004",AC005
344,8,영덕 대소산 봉수대,경상북도 영덕군 축산면 도곡리 산 20,#경상권 #경상북도기념물 #관광지 #봉수대 #역사 #역사여행 #영덕관광 #영덕여행 #일출명소 #조선시대,DC062,P345,36.5179864579421,129.431863715895,LC006,WT003,"VW001, VW002, VW003, VW004",AC005
345,1,청풍문화재단지,충청북도 제천시 청풍면 청풍호로 2048,#2024_여행가는달과함께하는_발도장여행지 #관광지 #역사 #역사공부 #역사관광지 #역사를품은곳 #역사문화재 #역사속 #역사속으로 #역사유적지 #역사이야기 #역사탐방 #역사탐험 #청풍문화재단지 #충청권,DC063,P346,37.0040483199984,128.173382821203,LC003,"WT001, WT002","VW001, VW004","AC001, AC002, AC004"
346,2,제천 의림지와 제림,충청북도 제천시 의림지로 33,#2024_여행가는달과함께하는_발도장여행지 #21_22한국관광100선 #가족여행 #관광지 #생태관광지 #의림지 #자연 #자연좋은곳 #제천가볼만한곳 #제천의림지 #제천의림지와제림 #충청권 #휴양여행 #힐링 #힐링여행,DC063,P347,37.1741242829469,128.208048667724,LC003,"WT001, WT002","VW001, VW004","AC001, AC002, AC004"
347,3,금월봉,충청북도 제천시 금성면 월굴리,#관광지 #금월봉 #기암괴석 #드라마촬영지 #등산 #산 #영화촬영지 #제천 #제천금월봉 #충청권 #트레킹,DC063,P348,37.0466157272653,128.164352140906,LC003,"WT001, WT002","VW001, VW004","AC001, AC002, AC004"
348,4,수몰역사관,충청북도 제천시 청풍면 청풍호로 2048,#가족여행 #문화시설 #수몰역사관 #아이와함께 #역사속 #역사속으로 #역사이야기 #역사탐험 #체험학습 #충청권,DC063,P349,37.0040483199984,128.173382821203,LC003,"WT001, WT002","VW001, VW004","AC001, AC002, AC004"
349,1,천곡황금박쥐동굴,강원특별자치도 동해시 동굴로 50,#가족여행 #강원웰니스관광지 #걷기여행 #관광지 #동해웰니스관광 #미세먼지탈출_이색동굴여행 #아이와함께 #여름방학가볼만한곳 #여름피서지 #연인과함께 #웰니스관광 #자연 #자연좋은곳 #천곡동굴 #천곡천연동굴 #천곡황금박쥐동굴 #체험학습 #친구와함께 #피서여행,DC064,P350,37.5175192036532,129.110476341539,LC002,"WT001, WT002, WT003, WT004","VW001, VW002, VW003, VW004","AC002, AC004, AC005"
350,2,해가사의 터,강원특별자치도 삼척시 수로부인길 401,#강원권 #강원도관광지 #관광지 #바다산책 #바다전망 #바다풍경 #바다향기로 #산책하기 #삼척해수욕장 #역사 #역사속으로 #역사이야기 #역사탐험 #연인과함께 #연중무휴 #일출,DC064,P351,37.4733828082223,129.162827807179,LC002,"WT001, WT002, WT003, WT004","VW001, VW002, VW003, VW004","AC002, AC004, AC005"
351,3,부흥횟집,강원특별자치도 동해시 일출로 93,#강원맛집 #대구_매운탕·맑은탕 #맛집 #모둠회 #물회 #복_매운탕·맑은탕 #부흥횟집 #음식 #회덮밥 #횟집,DC064,P352,37.5521039301128,129.117976095594,LC002,"WT001, WT002, WT003, WT004","VW001, VW002, VW003, VW004","AC002, AC004, AC005"
352,4,동해 해암정,강원특별자치도 동해시 촛대바위길 19,#가족여행 #강원권 #강원도유형문화재 #관광지 #북평해암정 #역사 #역사공부 #역사관광 #역사관광지 #역사를품은곳 #역사문화재 #역사속 #역사속으로 #역사속으로 #역사여행 #역사유적 #역사이야기 #역사탐험,DC064,P353,37.4790584,129.159095,LC002,"WT001, WT002, WT003, WT004","VW001, VW002, VW003, VW004","AC002, AC004, AC005"
353,5,추암 촛대바위,강원특별자치도 동해시 추암동,#2024_여행가는달과함께하는_발도장여행지 #강원권 #강원도_여행지_추천 #관광지 #명소 #산불피해지역 #자연 #추암촛대바위 #풍경,DC064,P354,37.4706409837437,129.149990688796,LC002,"WT001, WT002, WT003, WT004","VW001, VW002, VW003, VW004","AC002, AC004, AC005"
354,1,안성 미리내마을,경기도 안성시 양성면 미산1길 2,#가족과함께 #경기권 #관광지 #농촌마을 #농촌여행 #서울근교여행 #안성미리내마을 #전통체험마을 #체험 #팜스테이 #휴식공간 #휴식여행 #휴식하기 #휴식하기좋은곳,DC065,P355,37.1385847968429,127.258620744764,LC001,"WT001, WT002, WT004","VW001, VW004, VW006, VW008","AC001, AC004"
355,2,쌍미륵사와 기솔리석불입상,경기도 안성시 삼죽면 텃골길 105,#경기권 #경기도유형문화재 #관광지 #기솔리석불입상 #사찰여행 #서울근교여행 #쌍미륵사 #안성가볼만한곳 #안성명소 #안성쌍미륵사 #역사 #역사공부 #역사관광지 #역사문화재 #역사속 #역사속으로 #역사여행 #역사유적 #역사유적지 #역사이야기 #역사탐방 #역사탐험,DC065,P356,37.0676395767758,127.343420671027,LC001,"WT001, WT002, WT004","VW001, VW004, VW006, VW008","AC001, AC004"
356,3,안성허브마을,경기도 안성시 삼죽면 국사봉로 641-14,#가족여행 #가족체험여행 #관광지 #기념품판매 #사계절 #산업관광 #산업관광지 #수도권 #아이와함께 #안성허브마을 #자연좋은곳 #체험 #추억여행 #친구와함께 #특산물 #허브 #허브마을 #힐링 #힐링공간,DC065,P357,37.0650487361482,127.358078600018,LC001,"WT001, WT002, WT004","VW001, VW004, VW006, VW008","AC001, AC004"
357,1,설봉공원,경기도 이천시 경충대로2709번길 128,#가족과함께 #가족여행 #걷기길 #걷기여행 #관광지 #데이트코스 #드라마촬영지 #문화관광해설사 #사계절 #산책 #산책코스 #서울근교여행 #설봉공원 #수도권 #연인과함께 #이천가볼만한곳 #이천설봉공원 #이천여행 #자연좋은곳 #전시관 #추억여행 #피크닉 #힐링,DC066,P358,37.2796682396016,127.427867877488,LC001,"WT001, WT002, WT003, WT004","VW001, VW004, VW008","AC001, AC002, AC003, AC004"
358,2,이천 산수유마을,경기도 이천시 백사면 원적로775번길 17,#경기권 #관광지 #농촌마을 #농촌여행 #농촌체험 #농촌체험마을 #농촌체험여행 #데이트코스 #명소 #산수유나무 #산수유마을 #서울근교여행 #아이와함께 #연인과함께 #이천 #이천가볼만한곳 #이천산수유마을 #체험 #체험마을,DC066,P359,37.3407759410976,127.462295543478,LC001,"WT001, WT002, WT003, WT004","VW001, VW004, VW008","AC001, AC002, AC003, AC004"
359,3,이천시립월전미술관,경기도 이천시 경충대로2709번길 185,#나들이 #데이트코스 #문화시설 #미술관 #박물관 #수도권 #실내여행지 #아이와함께 #연인과함께 #예술 #이천가볼만한곳 #이천설봉공원 #이천시립월전미술관 #전시관 #체험학습 #친구와함께 #힐링,DC066,P360,37.2801665635928,127.424047151946,LC001,"WT001, WT002, WT003, WT004","VW001, VW004, VW008","AC001, AC002, AC003, AC004"
360,4,도예공방 들꽃마을,경기도 이천시 신둔면 도자예술로5번길 95,#가족과함께 #경기권 #공예체험 #공예품 #관광지 #도예공방 #도예공방들꽃마을 #도자기 #도자기공방 #도자기체험 #들꽃마을 #서울근교여행 #아이와함께 #전통공예 #체험 #체험프로그램 #한국도자기,DC066,P361,37.2935263525866,127.386245731283,LC001,"WT001, WT002, WT003, WT004","VW001, VW004, VW008","AC001, AC002, AC003, AC004"
361,1,땅끝관광지,전라남도 해남군 송지면 땅끝마을길 60-28,#가족과함께 #가족여행 #가족체험 #가족휴양 #경치좋은곳 #관광지 #땅끝 #땅끝관광지 #땅끝모노레일 #땅끝탑 #바다풍경 #아이와함께 #연인과함께 #자연좋은곳 #자연환경 #전라권 #친구와함께,DC067,P362,34.296805235078,126.527695800084,LC007,"WT001, WT002, WT003, WT004","VW001, VW002, VW003, VW004, VW006",AC004
362,2,고산 윤선도 유적지,전라남도 해남군 해남읍 녹우당길 135,#가족여행 #관광지 #교과서속여행 #역사 #역사공부 #역사관광지 #역사를품은곳 #역사문화재 #역사속 #역사속으로 #역사유적 #역사유적지 #역사이야기 #역사탐방 #역사탐험 #전라권,DC067,P363,34.5510166786727,126.621924736877,LC007,"WT001, WT002, WT003, WT004","VW001, VW002, VW003, VW004, VW006",AC004
363,3,우항리 공룡화석 자연사유적지,전라남도 해남군 황산면 공룡박물관길 234,#가족과함께 #공룡화석 #관광지 #교육여행 #아이가_좋아하는_여행 #아이와함께 #역사속으로 #역사이야기 #우항리공룡화석유적지 #우항리자연사유적지 #자연 #전남우항리공룡화석유적지 #해남공룡화석유적지 #해남공룡화석자연사유적지,DC067,P364,34.5890886656765,126.44283212925,LC007,"WT001, WT002, WT003, WT004","VW001, VW002, VW003, VW004, VW006",AC004
364,4,대흥사 [유네스코 세계유산],전라남도 해남군 삼산면 대흥사길 400,#가족여행 #관광지 #교과서속여행 #대흥사 #불교 #불교문화 #불교사찰 #사찰 #사찰여행 #산사 #세계문화유산 #아이와함께 #역사 #역사유적지 #유네스코세계문화유산 #자연좋은곳 #전통역사문화체험 #천년고찰 #친구와함께 #템플스테이 #한국불교 #해남대흥사 #해남명소 #해남여행,DC067,P365,34.4771463089206,126.616627540836,LC007,"WT001, WT002, WT003, WT004","VW001, VW002, VW003, VW004, VW006",AC004
365,1,화진포 (강원평화지역 국가지질공원),강원특별자치도 고성군 거진읍 현내면,#가을동화촬영지 #가족여행 #강원권 #관광지 #기차여행 #나들이 #당일치기여행 #데이트코스 #바다풍경 #서울근교여행 #아이와함께 #여름방학가볼만한곳 #여름여행 #연인과함께 #자연 #자연좋은곳 #체험학습 #친구와함께 #화진포해변 #힐링,DC068,P366,38.4822126,128.436079,LC002,"WT001, WT002, WT003, WT004","VW001, VW002, VW003, VW004, VW007","AC001, AC003, AC004"
366,2,"죽정분교(구,죽정초등학교)",강원특별자치도 고성군 현내면 모정2길 2,#강원권 #관광지 #레트로여행 #몽당분교 #오토캠핑 #오토캠핑장 #죽정초등학교 #체험 #추억여행 #캠핑장 #폐교 #행복한추억 #휴식공간 #휴식여행 #휴식하기 #휴식하기좋은곳,DC068,P367,38.4703697781014,128.419735610465,LC002,"WT001, WT002, WT003, WT004","VW001, VW002, VW003, VW004, VW007","AC001, AC003, AC004"
367,3,"죽정분교(구,죽정초등학교)",강원특별자치도 고성군 현내면 모정2길 2,#강원권 #관광지 #레트로여행 #몽당분교 #오토캠핑 #오토캠핑장 #죽정초등학교 #체험 #추억여행 #캠핑장 #폐교 #행복한추억 #휴식공간 #휴식여행 #휴식하기 #휴식하기좋은곳,DC068,P368,38.4703697781014,128.419735610465,LC002,"WT001, WT002, WT003, WT004","VW001, VW002, VW003, VW004, VW007","AC001, AC003, AC004"
368,4,고성 왕곡마을,강원특별자치도 고성군 왕곡마을길 41,#가족여행 #강원도_여행지_추천 #고성왕곡마을 #관광지 #기차여행 #나들이 #데이트코스 #마을축제 #서울근교여행 #아이와함께 #역사 #연인과함께 #이색체험 #자연좋은곳 #전통가옥 #체험학습 #친구와함께 #한옥,DC068,P369,38.3406178951909,128.499306564353,LC002,"WT001, WT002, WT003, WT004","VW001, VW002, VW003, VW004, VW007","AC001, AC003, AC004"
369,5,대진항,강원특별자치도 고성군 현내면 대진항길,#가족과함께 #강원권 #경치여행 #경치좋은곳 #관광지 #대진항 #바다 #바다경치 #연인과함께 #자연 #자연좋은곳 #자연환경 #풍경 #휴식여행,DC068,P370,38.4988533,128.42623,LC002,"WT001, WT002, WT003, WT004","VW001, VW002, VW003, VW004, VW007","AC001, AC003, AC004"
370,6,가진항,강원특별자치도 고성군 죽왕면 가진해변길 121-12,#가족과함께 #가진항 #가진해변 #강원권 #강원도_여행지_추천 #고성바다 #관광지 #바다 #바다경치 #바다내음 #어촌마을 #자연 #자연좋은곳 #자연환경 #풍경 #휴식여행 #힐링 #힐링영행,DC068,P371,38.3676793478759,128.511122377381,LC002,"WT001, WT002, WT003, WT004","VW001, VW002, VW003, VW004, VW007","AC001, AC003, AC004"
371,7,가진항,강원특별자치도 고성군 죽왕면 가진해변길 121-12,#가족과함께 #가진항 #가진해변 #강원권 #강원도_여행지_추천 #고성바다 #관광지 #바다 #바다경치 #바다내음 #어촌마을 #자연 #자연좋은곳 #자연환경 #풍경 #휴식여행 #힐링 #힐링영행,DC068,P372,38.3676793478759,128.511122377381,LC002,"WT001, WT002, WT003, WT004","VW001, VW002, VW003, VW004, VW007","AC001, AC003, AC004"
372,8,고성 왕곡마을,강원특별자치도 고성군 왕곡마을길 41,#가족여행 #강원도_여행지_추천 #고성왕곡마을 #관광지 #기차여행 #나들이 #데이트코스 #마을축제 #서울근교여행 #아이와함께 #역사 #연인과함께 #이색체험 #자연좋은곳 #전통가옥 #체험학습 #친구와함께 #한옥,DC068,P373,38.3406178951909,128.499306564353,LC002,"WT001, WT002, WT003, WT004","VW001, VW002, VW003, VW004, VW007","AC001, AC003, AC004"
373,9,대진항,강원특별자치도 고성군 현내면 대진항길,#가족과함께 #강원권 #경치여행 #경치좋은곳 #관광지 #대진항 #바다 #바다경치 #연인과함께 #자연 #자연좋은곳 #자연환경 #풍경 #휴식여행,DC068,P374,38.4988533,128.42623,LC002,"WT001, WT002, WT003, WT004","VW001, VW002, VW003, VW004, VW007","AC001, AC003, AC004"
374,10,화진포 (강원평화지역 국가지질공원),강원특별자치도 고성군 거진읍 현내면,#가을동화촬영지 #가족여행 #강원권 #관광지 #기차여행 #나들이 #당일치기여행 #데이트코스 #바다풍경 #서울근교여행 #아이와함께 #여름방학가볼만한곳 #여름여행 #연인과함께 #자연 #자연좋은곳 #체험학습 #친구와함께 #화진포해변 #힐링,DC068,P375,38.4822126,128.436079,LC002,"WT001, WT002, WT003, WT004","VW001, VW002, VW003, VW004, VW007","AC001, AC003, AC004"
375,1,천학정/문암포구,강원특별자치도 고성군 천학정길 10,#TV속촬영지 #강원권 #고성가볼만한곳 #관광지 #동해기암괴석 #동해바다 #동해안 #동해안정자 #동해일출명소 #문암포구 #바다 #역사 #역사공부 #역사를품은곳 #역사문화재 #역사속 #역사속으로 #역사여행 #역사유적 #역사유적지 #역사이야기 #역사탐방 #역사탐험 #일출일몰명소 #자연 #천학정 #풍경,DC069,P376,38.2888947856028,128.548002172586,LC002,,"VW001, VW002, VW003, VW004","AC002, AC004"
376,2,오대산 선재길,강원특별자치도 평창군 진부면 오대산로 374-8,#2024_여행가는달과함께하는_발도장여행지 #강원권 #걷기여행 #레포츠 #산림욕 #오대산선재길 #자연,DC069,P377,37.731678119228,128.593136604201,LC002,,"VW001, VW002, VW003, VW004","AC002, AC004"
377,3,송지호 해안 서낭바위 (강원평화지역 국가지질공원),강원특별자치도 고성군 죽왕면,#강원국가지질공원 #강원권 #관광지 #국가지질공원 #송지호 #송지호해안 #자연 #자연관광지 #자연속으로 #자연여행 #자연좋은곳 #자연풍경 #자연환경 #지질공원 #지질명소 #지질유산 #풍경 #한탄강_국가지질공원,DC069,P378,38.3287596789224,128.525205848883,LC002,,"VW001, VW002, VW003, VW004","AC002, AC004"
378,1,지경리해변,강원특별자치도 양양군 현남면 동해대로 62,#가족여행 #강원권 #강원권반려동물여행지 #관광지 #기차여행 #나들이 #당일치기여행 #데이트코스 #바다풍경 #반려동물동반여행지 #서울근교여행 #아이와함께 #여름방학가볼만한곳 #여름여행 #연인과함께 #자연 #자연좋은곳 #지경리해변 #체험학습 #친구와함께 #힐링,DC070,P379,37.9204654786446,128.803323605226,LC002,"WT001, WT002, WT003, WT004","VW001, VW002, VW003, VW004, VW006","AC001, AC003, AC004, AC005, AC006"
379,2,입암메밀타운,강원특별자치도 양양군 현남면 화상천로 155,#막국수 #맛집 #메밀막국수 #물막국수 #비빔막국수 #수육 #양양군 #양양군메밀맛집 #양양막국수맛집 #양양수육맛집 #음식,DC070,P380,37.9246289669757,128.777144356072,LC002,"WT001, WT002, WT003, WT004","VW001, VW002, VW003, VW004, VW006","AC001, AC003, AC004, AC005, AC006"
380,3,휴휴암(강원),강원특별자치도 양양군 현남면 광진2길 3-16,#2024_여행가는달과함께하는_발도장여행지 #가족과함께 #관광지 #불교 #불교문화 #사찰 #사찰여행 #양양여행 #역사 #자연좋은곳 #자연풍경 #자연환경 #전통사찰 #종교 #친구와함께 #한국불교 #휴식공간 #휴식여행 #휴식하기 #휴식하기좋은곳 #휴휴암,DC070,P381,37.9610517200998,128.767348227597,LC002,"WT001, WT002, WT003, WT004","VW001, VW002, VW003, VW004, VW006","AC001, AC003, AC004, AC005, AC006"
381,4,죽도정&죽도 전망대,강원특별자치도 양양군 현남면 인구리 1-1,#관광지 #자연 #죽도 #죽도전망대 #죽도정,DC070,P382,37.9716171011767,128.763219294053,LC002,"WT001, WT002, WT003, WT004","VW001, VW002, VW003, VW004, VW006","AC001, AC003, AC004, AC005, AC006"
382,5,남애어촌체험마을,강원특별자치도 양양군 현남면 매바위길 127,#고래사냥촬영지 #관광지 #아이와함께 #양양배낚시 #어촌마을 #어촌체험마을 #영화촬영지 #이색체험 #자연마을 #자연속으로 #자연여행 #자연좋은곳 #자연환경 #체험 #체험프로그램 #휴식공간 #휴식여행 #휴식하기 #휴식하기좋은곳,DC070,P383,37.9445238673872,128.786136097642,LC002,"WT001, WT002, WT003, WT004","VW001, VW002, VW003, VW004, VW006","AC001, AC003, AC004, AC005, AC006"
383,6,"남애해변(남애1, 3리)",강원도 양양군 현남면 광진리,#강원권 #경치좋은곳 #관광지 #남애해변 #바다풍경 #여름피서지 #연인과함께 #자연 #자연좋은곳 #친구와함께 #힐링여행,DC070,P384,37.9584630043179,128.763200941762,LC002,"WT001, WT002, WT003, WT004","VW001, VW002, VW003, VW004, VW006","AC001, AC003, AC004, AC005, AC006"
384,7,하조대 무인등대,강원특별자치도 양양군 현북면 조준길 99,#경치여행 #관광지 #바다경치 #바다내음 #사진찍기 #사진찍기좋은곳 #사진촬영 #양양가볼만한곳 #양양등대 #양양여행 #일출일몰명소 #자연 #자연좋은곳 #자연풍경,DC070,P385,38.0210985753205,128.734896787574,LC002,"WT001, WT002, WT003, WT004","VW001, VW002, VW003, VW004, VW006","AC001, AC003, AC004, AC005, AC006"
385,1,독일마을,경상남도 남해군 독일로 89-7,##19_20한국관광100선 #19_20한국관광100선 #2024_여행가는달과함께하는_발도장여행지 #21_22한국관광100선 #경상권 #관광지 #교과서속여행 #기차여행 #나들이 #데이트코스 #독일마을 #사진찍기좋은곳 #아이와함께 #연인과함께 #이색체험 #체험학습 #친구와함께 #한국관광100선 #힐링,DC071,P386,34.8000723245094,128.038548474215,LC005,"WT001, WT002, WT003, WT004","VW001, VW002, VW003, VW004, VW006, VW007","AC001, AC002, AC003, AC004, AC005, AC006"
386,2,남해 금산 봉수대,경상남도 남해군 상주면 보리암로 691,#경상권 #경상남도기념물 #관광지 #금산봉수대 #역사 #역사공부 #역사관광지 #역사를품은곳 #역사문화재 #역사속 #역사속으로 #역사여행 #역사유적 #역사유적지 #역사이야기 #역사탐방 #역사탐험,DC071,P387,34.7515830721386,127.980677714889,LC005,"WT001, WT002, WT003, WT004","VW001, VW002, VW003, VW004, VW006, VW007","AC001, AC002, AC003, AC004, AC005, AC006"
387,3,금산 보리암(남해),경상남도 남해군 상주면 보리암로 665,#2023_설날_소원 #2024_여행가는달과함께하는_발도장여행지 #가족여행 #관광지 #금산보리암 #불교 #불교문화 #사찰 #사찰&산사 #사찰여행 #아이와함께 #역사 #역사유적지 #자연좋은곳 #전망좋은곳 #전통&역사문화체험 #전통사찰 #종교 #친구와함께 #한국불교,DC071,P388,34.7538486517807,127.982994555829,LC005,"WT001, WT002, WT003, WT004","VW001, VW002, VW003, VW004, VW006, VW007","AC001, AC002, AC003, AC004, AC005, AC006"
388,4,해사랑전복마을,경상남도 남해군 미조면 미송로 193,#남녀노소 #남해맛집 #맛집 #보양식 #음식 #전복구이 #전복죽 #전복죽맛집 #전복죽전망_좋은 #전복회 #활전복죽,DC071,P389,34.7075078373772,128.036893732708,LC005,"WT001, WT002, WT003, WT004","VW001, VW002, VW003, VW004, VW006, VW007","AC001, AC002, AC003, AC004, AC005, AC006"
