,Order,Destination,Address,Tag,DriveCourseID,PlaceID,latitude,longitude,LocalID
0,1,미평산림욕장,전라남도 여수시 미평동 21-1,#관광지 #산림욕 #숲산책 #여수관광 #여수여행 #전남여행,1,1,34.7644965,127.709803,6
1,2,여수 녹테마레,전라남도 여수시 만성로 (294),#가볼래터 #문화시설 #미디어아트 #여수 #여수가볼만한곳 #여행구독 #전시관,1,2,34.7745604,127.725915,6
2,3,만성리 검은모래해변,전라남도 여수시 만성리길 15-1,#가족과함께 #검은모래해변 #관광지 #바다 #아이와함께 #여수가볼만한곳 #여수검은모래사장 #여수모래찜질명소 #여수바닷가 #여수여행 #여수해수욕장추천 #자연 #자연여행 #자연좋은곳 #자연풍경 #자연환경 #전라권 #전라남도여행 #휴식여행 #휴식하기좋은곳,1,3,34.7759771541926,127.744607723206,6
3,4,모사금해수욕장,전라남도 여수시 오천동,#가족과함께 #관광지 #모사금피서지 #모사금해수욕장 #여름피서지 #여름휴가 #자연 #자연좋은곳 #자연환경 #전라권 #풍경좋은곳 #해수욕장 #휴식여행 #휴식하기좋은곳 #힐링여행,1,4,34.7971792546936,127.747988031527,6
4,5,신덕해수욕장 / 신덕해변,전라남도 여수시 신덕2길 16-9,#관광지 #기암절벽 #바다체험 #신덕해변 #신덕해수욕장 #아이와함께 #여수바다 #여수여행 #여수해수욕장,1,5,34.8189349403611,127.766863175112,6
5,1,궁리포구,충청남도 홍성군 서부면 남당항로 853-5,#관광지 #궁리포구 #바다경치 #바다내음 #일몰여행 #자연 #자연좋은곳 #자연환경 #천수만 #충청권 #포구 #홍성12경 #홍성명품낙조 #홍성포구,2,6,36.5889216217204,126.457733338553,3
6,2,속동전망대,충청남도 홍성군 서부면 남당항로 689,#갯벌 #경치좋은곳 #관광지 #데이트코스 #바다경치 #바다전망 #바다전망대 #사진찍기좋은곳 #사진촬영 #속동갯벌 #연인과함께 #자연좋은곳 #자연환경 #전망대 #커플데이트 #타이타닉포토존 #해안전망대 #홍성속동전망대,2,7,36.5770226953143,126.464592720503,3
7,3,남당항,충청남도 홍성군 서부면 남당리,#가족과함께 #관광지 #남당항 #대하 #대하축제 #미식여행 #바다풍경 #새조개 #새조개축제 #수산물 #자연 #죽도 #천수만 #철새도래지 #충청권 #홍성남당항,2,8,36.5398850176414,126.479723667165,3
8,4,홍성방조제,충청남도 홍성군 서부면,#관광지 #바다풍경 #방조제 #자연 #충청권 #홍성 #홍성방조제 #홍성여행 #힐링,2,9,36.5803273092588,126.51723142167,3
9,5,보령방조제,충청남도 보령시 오천면,#관광지 #광천천 #바다풍경 #보령방조제 #빙도 #서해방조제 #오천항 #일몰감상지 #자연 #충남방조제 #충남보령방조제 #충청권 #힐링,2,10,36.4370877555063,126.523424331254,3
10,6,보령 충청수영성,충청남도 보령시 오천면 충청수영로,#가족여행 #관광지 #교과서속여행 #동백꽃필무렵 #드라마촬영지 #보령문화재 #보령오천성 #보령충청수영성 #사적 #아이와함께 #역사 #역사유적지 #연인과함께 #자연좋은곳 #전망좋은곳 #전통&역사문화체험 #충청수영성 #친구와함께 #한옥&전통가옥,2,11,36.4398663,126.522982,3
11,7,대천항,충청남도 보령시 대천항중앙길 42,#가족여행 #관광지 #꽃게 #대천항 #대천항수산시장 #대천항연안여객터미널 #보령여행 #서해 #수산물시장 #수산시장 #여객선터미널 #자연 #충청권 #친구와함께 #항구 #해산물,2,12,36.3273037196364,126.50923284561,3
12,8,안면암(태안),충청남도 태안군 안면읍 여수해길 198-160,#가볼래터 #가족여행 #관광지 #바다 #불교문화 #불교사찰 #사찰 #안면암 #여행구독 #역사 #자연 #자연환경 #종교 #충청권 #태안가볼만한곳 #한국불교 #휴식하기좋은곳,2,13,36.5594227746266,126.373799625052,3
13,10,꽃지해수욕장,충청남도 태안군 안면읍 승언리,#2024_여행가는달과함께하는_발도장여행지 #21_22한국관광100선 #23_24한국관광100선 #관광지 #꽃지해수욕장 #바다풍경 #아이와함께 #연인과함께 #자연 #충청권 #친구와함께 #한국관광100선,2,14,36.5051678525711,126.362764309111,3
14,1,이가리 닻 전망대,경상북도 포항시 북구 청하면 이가리,#2024_여행가는달과함께하는_발도장여행지 #가족과함께 #경치여행 #경치좋은곳 #관광지 #드라마촬영지 #바다경치 #바다내음 #사진찍기 #사진찍기좋은곳 #포항가볼만한곳 #포항여행,3,15,36.1831970427413,129.378664301228,5
15,2,영일대해수욕장,경상북도 포항시 북구 해안로 95,#관광지 #바다풍경 #여름피서지 #여름휴가 #영일대해수욕장 #자연 #자연속으로 #자연여행 #자연좋은곳 #자연환경 #친구와함께,3,16,36.0572951509316,129.377880175355,5
16,3,송도해변(포항),경상북도 포항시 남구 운하로251번길 34-1,#가족여행 #관광지 #바다풍경 #송도해변 #아이와함께 #여름방학가볼만한곳 #여름여행 #여름휴가 #연인과함께 #자연 #친구와함께 #피서여행,3,17,36.0482640218358,129.374323122135,5
17,4,포항운하,경상북도 포항시 남구 희망대로 1040,#19-20한국관광100선 #가족과함께 #가족여행 #경상권 #관광지 #나들이 #데이트장소 #바다풍경 #복합문화공간 #시티투어 #운하 #인생샷 #전망대 #전시관 #포항야경 #포항운하 #포항운하관 #포항크루즈,3,18,36.0238726668353,129.377390362095,5
18,5,구룡포 일본인 가옥거리,경상북도 포항시 남구 구룡포읍 구룡포길 153-1,#2024_여행가는달과함께하는_발도장여행지 #걷기좋은길 #경상권 #관광지 #구룡포일본인가옥거리 #나홀로여행 #데이트코스 #사계절 #역사관광지 #역사문화재 #역사속 #역사속으로 #역사이야기 #역사탐방 #역사탐험 #연인과함께 #인생샷 #체험,3,19,35.9905388592413,129.561599346426,5
19,6,포항 독수리바위,경상북도 포항시 남구 호미곶면 구만길 226,#관광지 #바다경치 #바다내음 #자연발생 #자연속으로 #자연여행 #자연좋은곳 #자연풍경 #자연환경,3,20,36.084895621346,129.557191481132,5
20,7,호미곶 해맞이광장,경상북도 포항시 남구 호미곶면 해맞이로150번길 20,#2024_여행가는달과함께하는_발도장여행지 #경상권 #경치좋은곳 #관광지 #기념관 #바다경치 #바다풍경 #사진찍기 #사진찍기좋은곳 #상생의손 #아이와함께 #일출명소 #일출일몰명소 #자연환경 #해맞이 #호미곶 #호미곶해맞이광장,3,21,36.0778379128621,129.568256453096,5
21,8,구룡포과메기문화관,경상북도 포항시 남구 구룡포읍 구룡포길117번길 28-8,#가족과함께 #과메기문화관 #문화시설 #아이와함께,3,22,35.9927403032825,129.561799281657,5
22,1,삼척항 - 새천년도로변,강원특별자치도 삼척시 삼척항길 196,#레포츠 #밀레니엄도로 #삼척드라이브길 #삼척여행 #삼척해수욕장 #새천년도로 #영화외출 #해안드라이브,4,23,37.436187926718,129.188160340913,2
23,2,삼척 덕풍계곡마을,강원특별자치도 삼척시 가곡면 풍곡안길 17-18,#관광지 #농촌마을 #농촌여행 #산책하기좋은곳 #여름피서지 #자연관광지 #자연마을 #자연좋은곳 #자연환경 #체험 #휴식공간 #휴식여행 #휴식하기 #휴식하기좋은곳,4,24,37.1246637709361,129.155968542953,2
24,3,덕풍계곡,강원특별자치도 삼척시 가곡면 덕풍길 44,#강원권 #강원삼척트레킹 #계곡 #계곡트레킹 #관광지 #덕풍계곡마을 #덕풍계곡트레킹 #삼척계곡 #여름방학 #여름방학가볼만한곳 #자연 #피서,4,25,37.12224076412,129.158367440869,2
25,4,덕풍계곡 트레킹,강원특별자치도 삼척시 가곡면 풍곡리,#가족여행 #강원권 #레포츠 #삼척여행 #여름가볼만한곳 #여름여행 #트레킹,4,26,37.089033331712,129.163426186393,2
26,5,삼척초당굴,강원특별자치도 삼척시 근덕면 금계리,#강원권 #관광지 #동굴 #미세먼지탈출_이색동굴여행 #수직동굴 #이색동굴여행 #자연 #천연기념물,4,27,37.3960605898253,129.181112364337,2
27,1,송지호 해수욕장,강원특별자치도 고성군 죽왕면 심층수길 85,#강원권 #강원도해수욕장 #관광지 #바다내음 #바다풍경 #송지호해수욕장 #여름여행 #자연 #친구와함께 #해수욕 #휴식공간 #휴식여행 #휴식하기좋은곳 #휴양여행 #힐링 #힐링여행,5,28,38.3314818425851,128.526533118031,2
28,2,이사부길(새천년해안도로),강원특별자치도 삼척시 새천년도로 61-18,#2024_여행가는달과함께하는_발도장여행지 #경치좋은곳 #관광지 #드라이브여행 #드라이브코스 #바다경치 #바다내음 #바다전망 #바다풍경 #연인과함께 #자연여행 #자연좋은곳 #자연풍경 #자연환경 #친구와함께 #해안드라이브,5,29,37.4392643625405,129.187977232141,2
29,3,"장호해수욕장(장호항, 장호해변)",강원특별자치도 삼척시 근덕면 장호리,#강원_가볼만한곳 #강원권 #강원도_여행지_추천 #관광지 #낚시 #바다 #바다내음 #바다풍경여행 #산불피해지역 #여름피서지 #자연 #장호해변 #체험,5,30,37.2729889714872,129.310409450271,2
30,1,송지호 해수욕장,강원특별자치도 고성군 죽왕면 심층수길 85,#강원권 #강원도해수욕장 #관광지 #바다내음 #바다풍경 #송지호해수욕장 #여름여행 #자연 #친구와함께 #해수욕 #휴식공간 #휴식여행 #휴식하기좋은곳 #휴양여행 #힐링 #힐링여행,6,31,38.3314818425851,128.526533118031,2
31,2,백담사,강원특별자치도 인제군 백담로 746 백담사,#가족과함께 #강원권 #관광지 #내설악 #문화관광해설사 #불교 #불교문화 #사찰여행 #역사 #역사관광지 #연중무휴 #오세암 #인제여행 #자연환경 #전통사찰 #종교 #친구와함께 #템플스테이 #한국불교 #휴식공간 #휴식여행 #휴식하기 #휴식하기좋은곳,6,32,38.1643044748974,128.374119290617,2
32,3,인제스피디움리조트 서킷,강원특별자치도 인제군 기린면 상하답로 130,#레이싱 #레포츠 #이색체험 #인제스피디움리조트,6,33,38.0026073029496,128.295384285256,2
33,4,평화의댐(화천),강원특별자치도 화천군 화천읍 평화로 3481-18,#가족여행 #강원권 #관광지 #아이와함께 #자연 #평화의댐 #화천가볼만한곳,6,34,38.2136611859135,127.846159229875,2
34,5,고석정 꽃밭,강원특별자치도 철원군 동송읍 태봉로 1769,#고석정 #관광지 #구절초 #꽃밭 #맨드라미 #백일홍 #사진찍기좋은곳 #철원가볼만한곳 #코스모스 #해바라기,6,35,38.1882273230829,127.295506161815,2
35,6,아야진해변,강원특별자치도 고성군 토성면 아야진해변길 157,#가족여행 #강원_가볼만한곳 #강원권 #강원도_여행지_추천 #관광지 #바다풍경 #바다풍경여행 #아야진해변 #여름여행 #연인과함께 #자연 #자연좋은곳 #친구와함께 #피서여행 #휴식공간 #휴식여행 #휴식하기 #휴식하기좋은곳,6,36,38.2765191847584,128.55276096923,2
36,7,철원 노동당사,강원특별자치도 철원군 철원읍 금강산로 265,#강원권 #강원도_여행지_추천 #관광지 #노동당사 #역사 #역사공부 #역사관광지 #역사를품은곳 #역사문화재 #역사속 #역사속으로 #역사여행 #역사유적 #역사유적지 #역사이야기 #역사탐험,6,37,38.2552009441858,127.202000967047,2
37,8,해산전망대,강원특별자치도 화천군 화천읍 동촌리 산11-7,#경치좋은곳 #관광지 #산책길 #산책하기 #산책하기좋은곳 #자연속으로 #자연여행 #자연좋은곳 #자연풍경 #자연환경 #휴식공간 #휴식여행 #휴식하기 #휴식하기좋은곳,6,38,38.1905004135509,127.816928076441,2
38,1,소양강처녀상,강원특별자치도 춘천시 영서로 2675,#강원권 #관광지 #소양강처녀상 #연중무휴,7,39,37.8934276815185,127.724325847556,2
39,2,강원특별자치도립화목원,강원특별자치도 춘천시 화목원길 24,#가족여행 #강원권 #강원도립화목원 #관광지 #꽃여행 #박물관 #수목원 #아이와함께 #자연 #자연좋은곳,7,40,37.9226444575207,127.725155972564,2
40,3,소양강처녀상,강원특별자치도 춘천시 영서로 2675,#강원권 #관광지 #소양강처녀상 #연중무휴,7,41,37.8934276815185,127.724325847556,2
41,4,제이드가든,강원특별자치도 춘천시 남산면 햇골길 80,#2024_여행가는달과함께하는_발도장여행지 #강원권 #강원도_여행지_추천 #강원도가볼만한곳 #관광지 #드라마촬영지 #수목원 #연중무휴 #자연 #제이드가든수목원 #힐링여행,7,42,37.8327469495872,127.542140775057,2
42,5,강원특별자치도립화목원,강원특별자치도 춘천시 화목원길 24,#가족여행 #강원권 #강원도립화목원 #관광지 #꽃여행 #박물관 #수목원 #아이와함께 #자연 #자연좋은곳,7,43,37.9226444575207,127.725155972564,2
43,6,의암호,강원특별자치도 춘천시 신동면 옛경춘로 114,#경치여행 #경치좋은곳 #낚시 #둘레길 #레고랜드 #레포츠 #붕어 #산책로 #산책하기좋은곳 #얼음낚시 #의암스카이워크 #자전거길 #케이블카 #힐링산책,7,44,37.8374109121196,127.677403902317,2
44,1,파주 장단콩마을,경기도 파주시 군내면 통일촌길 64,#가족과함께 #관광지 #농촌마을 #농촌여행 #농촌체험마을 #농촌체험여행 #아이와함께 #체험 #체험프로그램 #휴식공간 #휴식여행 #휴식하기 #휴식하기좋은곳,8,45,37.9106389800343,126.733603103531,1
45,2,임진강댑싸리공원,경기도 연천군 중면 삼곶리,#2024_여행가는달과함께하는_발도장여행지 #가을추천명소 #관광지 #꽃구경 #꽃구경 #댑싸리공원 #연천가볼만한곳 #연천가볼만한곳 #임진강댑싸리공원,8,46,38.1370138655657,127.01874327138,1
46,1,안산문화원,경기도 안산시 상록구 석호로 144,#가족여행 #경기권 #무장애 #문화시설 #서울근교여행 #안산문화원 #안산문화학교 #안산민속체험 #안산박물관 #안산시 #안산향토사박물관 #전통문화체험 #지역문화학교 #향토유물전시,9,47,37.2993256853712,126.847631726672,1
47,2,안산갈대습지공원,경기도 안산시 상록구 갈대습지로 76,#가족과함께 #갈대밭데이트코스 #걷기길 #관광지 #데이트코스 #생태관광 #생태자료전시 #수도권 #시화호 #아이와함께 #안산갈대습지공원 #안산공원 #안산체험교육 #연인과함께 #인공습지 #인생샷 #자연,9,48,37.2737227465741,126.839755313316,1
48,1,백운사(의왕),경기도 의왕시 왕곡로 323,#경치좋은곳 #관광지 #백운산등산코스 #불교 #불교문화 #사찰 #사찰여행 #수도권 #역사 #의왕가볼만한곳 #의왕백운사 #의왕사찰 #자연속으로 #자연환경 #전통사찰 #종교 #한국불교 #휴식공간 #휴식여행 #휴식하기 #휴식하기좋은곳,10,49,37.3499054915944,127.00788604023,1
49,2,백운호수,경기도 의왕시 백운로 526,#경치좋은곳 #관광지 #백운사 #백운호수 #수도권 #의왕 #의왕가볼만한곳 #의왕백운사 #의왕사찰 #자연 #호수 #휴양여행 #힐링,10,50,37.3832117467149,127.00075765292,1
50,3,하우현성당,경기도 의왕시 원터아랫길 81-6,#관광지 #교우촌 #문화관광해설사 #수도권 #역사 #역사공부 #역사관광지 #역사를품은곳 #역사문화재 #역사속 #역사속으로 #역사여행 #역사유적 #역사유적지 #역사이야기 #역사탐방 #역사탐험 #의왕8경 #의왕경치좋은곳 #의왕하우현성당 #의왕하우현성당사제관 #종교 #천주교 #천주교성지 #천주교성지순례 #피난처 #하우현성당 #하우현성당사제관,10,51,37.3959762318847,127.023736739476,1
51,4,청계사(경기),경기도 의왕시 청계로 475,#관광지 #문화관광해설사 #사찰 #수도권 #역사 #우담바라꽃 #우담바라사찰 #의왕경치좋은곳 #의왕사찰 #의왕청계사 #의왕추천여행지 #청계산사찰,10,52,37.4120684951383,127.034875225965,1
52,1,영진해변,강원특별자치도 강릉시 주문진읍 해안로 1609,#강원권 #관광지 #바다경치 #바다내음 #바다풍경 #여름여행 #여름휴가 #연중무휴 #영진해변 #자연 #해변 #휴식공간 #휴식여행 #휴식하기좋은곳,11,53,37.8795534915402,128.833557121069,2
53,2,대진 등대,강원특별자치도 고성군 현내면 한나루로4길 16-38,#강원권 #강원도경치좋은곳 #경치여행 #경치좋은곳 #관광지 #대진등대 #동해여행 #등대 #무인등대 #바다경치 #바다내음 #자연 #풍경,11,54,38.5037560840299,128.428733864322,2
54,3,청간정,강원특별자치도 고성군 토성면 동해대로 5110,#강원권 #강원도유형문화재 #경치좋은곳 #고성가볼만한곳 #관광지 #관동팔경 #교과서속여행 #역사 #역사공부 #역사를품은곳 #역사속 #역사속으로 #역사유적지 #역사이야기 #역사탐방 #역사탐험 #예능촬영지 #유적지 #청간정,11,55,38.2643987706534,128.55837360986,2
55,4,고성 통일전망타워,강원특별자치도 고성군 현내면 금강산로 481,#가족과함께 #강원권 #고성가볼만한곳 #고성통일전망대 #관광지 #교과서속여행 #아이와함께 #안보 #안보관광 #안보여행 #역사공부 #역사속으로 #역사이야기 #연중무휴 #전망대 #전쟁역사 #통일전망대 #통일전망대(고성) #한국전쟁,11,56,38.5144187175158,128.416656703129,2
56,1,조양방직,인천광역시 강화군 강화읍 향나무길5번길 12,#2024_여행가는달과함께하는_발도장여행지 #SNS속_인생샷명소 #데이트 #레트로 #레트로여행 #연인과함께 #음식 #인생샷 #조양방직 #친구와함께 #커플데이트,12,57,37.7467787566069,126.480970774647,1
57,2,라베니체광장,경기도 김포시 태장로 810,#SNS지원단 #관광지 #김포시 #라베니체 #수변공원,12,58,37.637564080956,126.677341908204,1
58,3,김포 장릉(인헌왕후) [유네스코 세계유산],경기도 김포시 장릉로 79,#2024_여행가는달과함께하는_발도장여행지 #가족여행 #관광지 #교과서속여행 #김포가볼만한곳 #김포장릉 #아이와함께 #역사 #역사공부 #역사관광지 #역사를품은곳 #역사문화재 #역사속으로 #역사유적 #역사유적지 #역사탐방 #유네스코세계문화유산 #인헌왕후 #전통&역사문화체험 #조선왕릉 #친구와함께,12,59,37.6107518993992,126.712658300211,1
59,1,원대리 자작나무 숲 (속삭이는 자작나무 숲),강원특별자치도 인제군 인제읍 자작나무숲길 760,#2024_여행가는달과함께하는_발도장여행지 #21_22한국관광100선 #23_24한국관광100선 #SNS속_인생샷명소 #가족여행 #강원권 #겨울가볼만한곳 #경치좋은곳 #관광지 #숙박대전_가볼만한곳 #숙박대전_추천기사 #원대리사진맛집 #원대리자작나무숲 #인생샷 #인제자작나무숲 #인제포토스팟 #자연 #자작나무숲 #한국관광100선,13,60,38.0092057134613,128.194290340012,2
60,2,화암사(고성),강원특별자치도 고성군 토성면 화암사길 100,#2024_여행가는달과함께하는_발도장여행지 #가족과함께 #강원권 #고성화암사 #관광지 #불교 #불교문화 #불교사찰 #사찰 #사찰여행 #역사 #연중개방 #자연환경 #전통차 #종교 #한국불교 #화암사 #휴식공간 #휴식여행 #휴식하기 #휴식하기좋은곳,13,61,38.2263035536854,128.471142957894,2
61,3,해산전망대,강원특별자치도 화천군 화천읍 동촌리 산11-7,#경치좋은곳 #관광지 #산책길 #산책하기 #산책하기좋은곳 #자연속으로 #자연여행 #자연좋은곳 #자연풍경 #자연환경 #휴식공간 #휴식여행 #휴식하기 #휴식하기좋은곳,13,62,38.1905004135509,127.816928076441,2
62,4,인제스피디움리조트 서킷,강원특별자치도 인제군 기린면 상하답로 130,#레이싱 #레포츠 #이색체험 #인제스피디움리조트,13,63,38.0026073029496,128.295384285256,2
63,5,한반도섬,강원특별자치도 양구군 양구읍 한반도섬길 76,#관광지 #양구가볼만한곳 #한반도섬,13,64,38.1306141932488,127.982762831123,2
64,1,하조대,강원특별자치도 양양군 현북면 하조대해안길 29,#관광지,14,65,38.0224880651102,128.724933814868,2
65,2,"서피비치, 서핑(양양)",강원특별자치도 양양군 현북면 하조대해안길 119,#2020 #2020한국관광의별 #강원권 #강원권반려동물여행지 #꿀잼_액티비티 #레포츠 #반려동물동반여행지 #서피비치 #서핑 #캠핑 #한국관광의별 #해변가,14,66,38.0277534804076,128.717521171416,2
66,3,낙산사,강원특별자치도 양양군 강현면 낙산사로 100,#2024_여행가는달과함께하는_발도장여행지 #가족여행 #강원권 #강원도_여행지_추천 #관광지 #기차여행 #나들이 #낙산사 #동해여행 #사찰&산사 #서울근교여행 #아이와함께 #양양여행 #양양여행지추천 #역사 #자연좋은곳 #전통&역사문화체험 #체험학습 #친구와함께 #템플스테이,14,67,38.1245691613212,128.630163648893,2
67,1,대포항,강원특별자치도 속초시 대포항길 64,#가족여행 #강원권 #관광지 #나들이 #대포항 #데이트코스 #바다풍경 #아이와함께 #여름여행 #연인과함께 #자연 #자연좋은곳 #체험학습 #친구와함께 #힐링,15,68,38.1749711422915,128.60748306796,2
68,2,영금정,강원특별자치도 속초시 동명항길 35,#2024_여행가는달과함께하는_발도장여행지 #강원권 #경치좋은곳 #관광지 #나들이 #바다낚시 #바다풍경 #야간관광100선 #영금정 #자연좋은곳 #전망좋은곳 #피서여행 #해돋이명소 #해상정자 #해안절경,15,69,38.2121070424096,128.597344846395,2
69,3,영랑호,강원특별자치도 속초시 영랑호반길 140,#강원도_여행지_추천 #관광지 #나홀로여행 #문화관광해설사 #생태관광지 #영랑호 #자연 #휴양여행 #힐링 #힐링여행,15,70,38.2142296232005,128.58078554268,2
70,4,속초해수욕장,강원특별자치도 속초시 해오름로 190,#가족여행 #강원권 #관광지 #기차여행 #나들이 #당일치기여행 #데이트코스 #바다풍경 #서울근교여행 #속초해변 #아이와함께 #여름방학가볼만한곳 #여름여행 #연인과함께 #일출일몰명소 #자연 #자연좋은곳 #체험학습 #친구와함께 #힐링,15,71,38.1905709826187,128.602024647419,2
71,1,구례구역,전라남도 순천시 황전면 섬진강로 217,#관광지 #구례입구 #순천기차역여행 #순천서원 #순천여행 #윤스테이촬영지 #전라남도여행,16,72,35.163310650026,127.453153044419,6
72,2,침실습지,전라남도 곡성군 오곡면 오지2길 21-99,#경치좋은곳 #관광지 #사진여행 #사진찍기 #사진촬영 #사진촬영명소 #자연 #자연관광지 #자연발생 #자연속으로 #자연여행 #자연좋은곳 #자연체험 #자연풍경 #자연환경 #휴식공간 #휴식여행 #휴식하기 #휴식하기좋은곳,16,73,35.2690162951131,127.326921106257,6
73,3,곡성역,전라남도 곡성군 곡성읍 곡성로 920,#관광지 #기차역 #섬진강기차마을 #성곽역사 #전남여행,16,74,35.2836105383006,127.303695147064,6
74,4,섬진강기차마을,전라남도 곡성군 오곡면 기차마을로 232,#19_20한국관광100선 #2014 #2024_여행가는달과함께하는_발도장여행지 #23_24한국관광100선 #가족여행 #관광지 #기차여행 #섬진강기차마을 #수상내역 #야간관광100선 #이색열차 #장미여행지 #전라권 #창조관광 부문 #체험 #추억여행 #한국관광100선 #한국관광의별,16,75,35.2775315721907,127.308286688106,6
75,5,압록유원지,전라남도 곡성군 죽곡면 섬진강로 1012,#가족과함께 #곡성압록유원지 #관광지 #산책코스 #산책하기좋은곳 #섬진강유원지 #섬진강차박 #압록강 #여름피서지 #여름휴가 #유원지 #전남압록유원지 #캠핑장 #커플데이트 #피서여행지 #휴식공간 #휴식하기좋은곳,16,76,35.1919626880899,127.377512256741,6
76,6,곡성섬진강천문대,전라남도 구례군 구례읍 섬진강로 1234,#겨울방학가볼만한곳 #곡성섬진강천문대 #곡성천문관측소 #곡성천문대 #관광지 #구례여행 #구례천문대 #섬진강천문대 #아이와함께 #여름방학가볼만한곳 #자연 #전라권 #주말추천여행 #체험학습,16,77,35.2266224751196,127.369189304448,6
77,1,상주은모래비치,경상남도 남해군 상주면 상주로 17,#가족여행 #관광지 #남해여행 #남해해수욕장 #바다풍경 #상주은모래비치 #아이와함께 #여름방학가볼만한곳 #여름여행 #여름휴가 #연인과함께 #은모래 #은모래비치 #자연 #친구와함께 #피서여행 #한려해상국립공원 #해수욕장,17,78,34.7216222818227,127.988434607732,5
78,2,미조항,경상남도 남해군 미조면,#관광지 #남해 #바다 #자연,17,79,34.7120206495288,128.046036616919,5
79,3,남해보물섬전망대,경상남도 남해군 삼동면 동부대로 720,#2024_여행가는달과함께하는_발도장여행지 #경치여행 #경치좋은곳 #관광지 #남해가볼만한곳 #바다경치 #보물섬전망대 #연인과함께 #이색체험 #익스트림스포츠 #전망대 #친구와함께 #휴식공간 #휴식여행,17,80,34.7698293872598,128.053324367469,5
80,4,항도몽돌해수욕장과 항도방파제,경상남도 남해군 미조면 송정리,#관광지 #여름피서지 #자연 #자연관광지 #자연속으로 #자연여행 #자연좋은곳 #자연풍경 #자연환경 #항도몽돌해변 #항도몽돌해수욕장 #항도방파제 #휴식하기좋은곳,17,81,34.7504859959708,128.042852075473,5
81,5,원천항,경상남도 남해군 이동면 신전리 1138-10,#관광지,17,82,34.7629977216043,127.947654548936,5
82,6,남해 물건리 방조어부림,경상남도 남해군 삼동면 동부대로1030번길 59,#가족여행 #경상권 #경상남도여행 #경치좋은곳 #관광지 #남해관광 #남해산책길 #남해여행 #독일마을 #드라이브여행 #드라이브코스 #물건마을 #역사 #월출 #일출 #일출일몰명소 #자연 #자연유산 #자연좋은곳 #천연기념물 #해돋이명소,17,83,34.7957567049395,128.050425544429,5
83,1,안도해변,전라남도 여수시 남면 안도해수욕장길 105,#관광지 #낚시 #바다 #안도해변 #여름피서지 #자연 #자연좋은곳 #자연환경 #전라권 #풍경좋은곳 #휴식여행 #힐링여행,18,84,34.490475135032,127.812517032458,6
84,2,한려해상국립공원 (오동도),전라남도 여수시 오동도로 222,#21_22한국관광100선 #23_24한국관광100선 #가족여행 #걷기좋은곳 #관광지 #동백꽃 #동백열차 #바다풍경 #생태관광지 #섬여행 #여수가볼만한곳 #여수동백꽃명소 #여수동백섬 #여수여행 #여수오동도 #여수의상징 #연중무휴 #오동도 #오동도등대 #자연 #전라권 #전라남도여행 #한국관광100선 #휴양여행 #힐링,18,85,34.7443617478229,127.764104097259,6
85,3,해금강유람선,경상남도 거제시 남부면 해금강로 270,"#거제가볼만한곳 #거제선상관광 #거제외도관람 #거제유람선 #관광지 #바다 #바다,섬 #바다전망 #바다풍경 #연인과함께 #우제봉 #유람선 #자연환경 #해금강 #힐링&여행 #힐링&휴양여행 #힐링&휴양여행",18,86,34.737803119248,128.673190032312,5
86,4,금오도,전라남도 여수시 남면,#2020_휴가철찾아가고싶은_33섬 #2023찾아가고싶은섬 #2023찾아가고싶은섬_가을섬 #가족과함께 #경치여행 #경치좋은곳 #관광지 #금오도 #금오도비렁길 #다도해해상국립공원 #바다내음 #산책길 #섬여행 #자연 #자연마을 #자연여행 #자연좋은곳 #자연풍경 #자연환경 #휴식공간 #휴식여행 #휴식하기 #휴식하기좋은곳,18,87,34.5089645965176,127.767526123981,6
87,5,향일암(여수),전라남도 여수시 돌산읍 향일암로 60,#15_16한국관광100선 #2023_설날_소원 #2024_여행가는달과함께하는_발도장여행지 #BTS #bts여행 #bts투어 #관광지 #관음기도도량 #나홀로여행 #바다풍경 #불교 #불교문화 #사찰 #사찰여행 #여수10경 #여수가볼만한곳 #여수사찰 #여수섬마을 #여수여행 #여수일출명소 #여수향일암 #역사 #영구암 #일출명소 #일출일몰명소 #자연환경 #전남 #전남권 #전라권 #전라남도여행 #전망좋은곳 #전통사찰 #종교 #한국관광100선 #한국불교 #향일암(여수) #휴식하기좋은곳 #힐링 #힐링여행,18,88,34.5937941993736,127.802987946603,6
88,1,삼탄아트마인,강원특별자치도 정선군 고한읍 함백산로 1445-44,#가족체험여행 #강원권 #강원도_여행지_추천 #강원웰니스관광지 #관광지 #근대산업유산 #리모델링공간 #문화콘텐츠산업 #박물관 #복합문화공간 #산업관광 #산업관광지 #삼탄아트마인 #아이와함께 #역사공부 #역사속으로 #역사이야기 #역사탐험 #웰니스관광 #이색체험 #재생공간 #전시관 #정선웰니스관광 #체험학습 #친구와함께,19,89,37.1850515002253,128.883521694438,2
89,2,검룡소 (강원고생대 국가지질공원),강원특별자치도 태백시 창죽동,#강원고생대 #강원고생대_국가지질공원 #검룡소 #경치좋은곳 #관광지 #국가지질공원 #자연 #자연관광지 #자연발생 #자연속으로 #자연여행 #자연좋은곳 #자연풍경 #자연환경 #지질공원 #지질명소 #태백산,19,90,37.2334427302758,128.956898717214,2
90,3,정암사 수마노탑,강원특별자치도 정선군 고한읍 함백산로 1410,#가족여행 #강원권 #강원웰니스관광지 #관광지 #기차여행 #나들이 #당일치기여행 #사찰&산사 #서울근교여행 #수마노탑 #아이와함께 #역사 #웰니스관광 #자연좋은곳 #전통&역사문화체험 #정선웰니스관광 #정암사 #정암사수마노탑 #체험학습 #친구와함께 #힐링,19,91,37.1830165620996,128.892560560817,2
91,4,사북 탄광문화관광촌,강원특별자치도 정선군 사북읍 하이원길 57-3,#강원권 #관광지 #교육여행 #근대산업유산 #사북탄광 #사북탄광문화관광촌 #산업관광 #산업관광지 #석탄유물보존관 #아이와함께 #역사속으로 #역사이야기 #이색체험 #전시관 #체험프로그램 #체험학습 #탄광문화관광촌 #탄광촌,19,92,37.2208846598005,128.815723100537,2
92,5,함백산,강원특별자치도 태백시 혈동,#강원권 #경치여행 #경치좋은곳 #관광지 #등산 #새해맞이 #자연 #자연속으로 #함백산 #휴식하기좋은곳 #힐링여행,19,93,37.1175655529061,128.909509420756,2
93,1,월송정,경상북도 울진군 평해읍 월송정로 517,#관광지 #관동팔경 #역사 #역사공부 #역사관광지 #역사를품은곳 #역사문화재 #역사속 #역사속으로 #역사유적 #역사유적지 #역사이야기 #역사탐방 #역사탐험 #울진여행 #일출일몰명소,20,94,36.7438305963348,129.468713303276,5
94,2,망양정,경상북도 울진군 근남면 산포리,#가족여행 #경상권 #경치좋은곳 #관광지 #관동팔경 #망양해수욕장 #문화재 #역사 #역사공부 #역사를품은곳 #역사속 #역사속으로 #역사여행 #역사이야기 #역사탐방 #역사탐험 #자연환경,20,95,36.9523831422733,129.40576229698,5
95,3,등기산스카이워크,경상북도 울진군 후포면 후포리,#2024_여행가는달과함께하는_발도장여행지 #가족과함께 #경치여행 #경치좋은곳 #관광지 #구름다리 #등기산 #등기산공원 #바다경치 #바다내음 #산책코스 #스카이워크 #연인과함께 #전망대 #휴식공간 #휴식여행 #휴식하기좋은곳,20,96,36.6918636021057,129.446685561923,5
96,4,울진 후포항,경상북도 울진군 후포면 등기산길 29,#2024_여행가는달과함께하는_발도장여행지 #경상권 #관광지 #등기산 #울진가볼만한곳 #울진여행 #자연 #후포등대 #후포항 #후포해수욕장,20,97,36.6807872075426,129.461918576948,5
97,5,후포해수욕장,경상북도 울진군 후포면 삼율리,#가족여행 #경상권 #관광지 #바다풍경 #여름여행 #울진여행 #울진해수욕장 #자연 #피서여행 #후포등대 #후포항,20,98,36.687836722481,129.427765453558,5
98,1,변산해수욕장,전북특별자치도 부안군 변산면 변산로 2076,#2024_여행가는달과함께하는_발도장여행지 #가족과함께 #관광지 #문화관광해설사 #바다 #변산해수욕장 #여름피서지 #자연 #자연좋은곳 #자연환경 #전라권 #휴식여행 #휴식하기 #휴식하기좋은곳,21,99,35.6812796,126.531507,6
99,2,고사포해수욕장,전북특별자치도 부안군 변산면 노루목길 8-8,#가족과함께 #가족여행 #관광지 #바다풍경 #부안여행 #여름피서지 #자연 #자연속으로 #자연여행 #자연좋은곳 #자연풍경 #자연환경 #해수욕장 #휴식하기좋은곳 #휴양여행 #힐링여행,21,100,35.6638860222773,126.510371333515,6
100,3,채석강 (전북 서해안 국가지질공원),전북특별자치도 부안군 변산면 변산해변로 1,#2024_여행가는달과함께하는_발도장여행지 #가족여행 #관광지 #국가지질공원 #바다풍경 #부안채석강 #연중무휴 #자연 #자연관광지 #자연발생 #자연속으로 #자연여행 #자연좋은곳 #자연환경 #전라권 #전북_서해안_국가지질공원 #지질공원 #지질명소 #채석강 #해식절벽,21,101,35.6282989375514,126.471015218673,6
101,4,상록해수욕장,전북특별자치도 부안군 변산면 변산로 3210-16,#가족여행 #관광지 #바다풍경 #상록해수욕장 #아이와함께 #여름방학가볼만한곳 #여름여행 #여름휴가 #연인과함께 #자연 #친구와함께 #피서여행,21,102,35.6006466345144,126.482227158741,6
102,5,곰소항,전북특별자치도 부안군 진서면 곰소리,#가족과함께 #가족여행 #곰소염전 #곰소젓갈 #곰소항 #곰소항구 #관광지 #부안가볼만한곳 #자연 #짠내나는여행 #친구와함께,21,103,35.5953179551672,126.609623719114,6
103,1,모래미 해변,전라남도 영광군 백수읍 해안로 1389,#관광지 #영광여행 #영광해변 #영광해수욕장 #자연 #자연관광지 #전라권 #한시마을,22,104,35.3632070109309,126.415609305583,6
104,2,백수해안공원,전라남도 영광군 백수읍 백암리 223-2,#관광지 #영광 #해상공원,22,105,35.3255821216842,126.37901812274,6
105,3,영광노을전시관,전라남도 영광군 백수읍 해안로 957,#경치좋은곳 #노을전시관 #문화시설 #바다경치 #바다풍경 #산책길 #산책하기 #산책하기좋은곳 #숙박대전_가볼만한곳 #숙박대전_추천기사 #자연좋은곳 #전라권 #전시관 #해맞이&해돋이&해넘이여행,22,106,35.353731926146,126.38928135481,6
106,4,백수해안도로 노을전망대,전라남도 영광군 백수읍 대신리,#가족과함께 #관광지 #낙조 #당일치기여행 #백수해안도로,22,107,35.3505166058567,126.400266642509,6
107,1,학동흑진주몽돌해변,경상남도 거제시 동부면 학동6길 18-1,#가족과함께 #경상권 #관광지 #남녀노소 #레포츠 #몽돌해변 #사진찍기좋은곳 #사진촬영 #산책코스 #아이와함께 #연인과함께 #자연 #자연발생 #자연좋은곳 #자연체험 #자연환경 #학동흑진주몽돌해변 #휴식여행 #휴식하기좋은곳,23,108,34.7733041468499,128.640242599561,5
108,2,바람의 언덕,경상남도 거제시 남부면 도장포마을,#17_18한국관광100선 #19_20한국관광100선 #2024_여행가는달과함께하는_발도장여행지 #21_22한국관광100선 #거제바람의언덕 #경남 #경상권 #관광지 #동백나무군락 #동백나무숲길 #동백터널 #동백터널숲 #드라마촬영지 #바람의언덕 #자연 #한국관광100선,23,109,34.7439417,128.663203,5
109,3,신선대 전망대,경상남도 거제시 남부면 갈곶리,#가족과함께 #경상권 #경치좋은곳 #관광지 #드라마촬영지 #사진촬영명소 #신선대 #영화촬영지 #자연관광지 #자연속으로 #자연좋은곳 #자연환경 #전망대 #친구와함께 #해금강,23,110,34.7406311738545,128.672022241146,5
110,4,거제 학동리 동백나무 숲 및 팔색조 번식지,경상남도 거제시 동부면 거제대로 684-22,#가족여행 #거제시동백군락지 #거제팔색조 #거제학동리동백나무숲 #경상권 #관광지 #국가지정문화재 #동백나무 #동백나무숲 #자연 #자연관광지 #자연발생 #자연좋은곳 #자연환경 #천연기념물 #팔색조 #팔색조번식지 #학동리동백나무 #학동팔색조 #휴식공간 #휴식여행 #휴식하기 #휴식하기좋은곳,23,111,34.7577614,128.641038,5
111,5,거제도 해금강,경상남도 거제시 남부면 갈곶리,#2024_여행가는달과함께하는_발도장여행지 #가족여행 #거제도해금강 #경상권 #관광지 #자연,23,112,34.7406311738545,128.672022241146,5
112,6,함목몽돌해변,경상남도 거제시 남부면 갈곶리,#거제가볼만한곳 #거제함목 #거제해수욕장 #경상권 #경치좋은곳 #관광지 #몽돌해수욕장 #바다풍경 #여름피서지 #연인과함께 #자연 #자연좋은곳 #친구와함께 #함목몽돌 #해금강,23,113,34.7406311738545,128.672022241146,5
113,1,호미곶 해맞이광장,경상북도 포항시 남구 호미곶면 해맞이로150번길 20,#2024_여행가는달과함께하는_발도장여행지 #경상권 #경치좋은곳 #관광지 #기념관 #바다경치 #바다풍경 #사진찍기 #사진찍기좋은곳 #상생의손 #아이와함께 #일출명소 #일출일몰명소 #자연환경 #해맞이 #호미곶 #호미곶해맞이광장,24,114,36.0778379128621,129.568256453096,5
114,2,구룡포 일본인 가옥거리,경상북도 포항시 남구 구룡포읍 구룡포길 153-1,#2024_여행가는달과함께하는_발도장여행지 #걷기좋은길 #경상권 #관광지 #구룡포일본인가옥거리 #나홀로여행 #데이트코스 #사계절 #역사관광지 #역사문화재 #역사속 #역사속으로 #역사이야기 #역사탐방 #역사탐험 #연인과함께 #인생샷 #체험,24,115,35.9905388592413,129.561599346426,5
115,3,구룡포항,경상북도 포항시 남구 구룡포읍 호미로 222-1,#가족과함께 #관광지 #구룡포 #구룡포근대역사관 #구룡포시장 #구룡포일본인가옥거리 #구룡포항 #남녀노소 #드라마 촬영지 #바다내음 #바다바람 #아이와함께 #포항가볼만한곳 #항구 #해산물,24,116,35.9892615174139,129.555611390462,5
116,1,정동진해변,강원특별자치도 강릉시 강동면 정동역길 17,#강원_가볼만한곳 #강원권 #강원도_여행지_추천 #관광지 #바다내음 #바다풍경 #바다풍경여행 #여름여행 #여름휴가 #연인과함께 #연중무휴 #자연 #정동진가볼만한곳 #정동진역 #정동진해변 #힐링여행,25,117,37.6913398885234,129.03282949125,2
117,2,주문진읍 BTS 앨범사진 촬영지 (버스정류장),강원특별자치도 강릉시 주문진읍 향호리,#2024_여행가는달과함께하는_발도장여행지 #BTS #BTS버스정류장 #bts여행 #BTS촬영지 #bts투어 #TV속촬영지여행 #강릉가볼만한곳 #관광지 #남녀노소 #사진찍기 #사진찍기좋은곳 #사진촬영 #사진촬영명소 #자연좋은곳 #자연풍경 #자연환경 #주문진읍 #주문진해변 #친구와함께 #향호해변,25,118,37.9037756186021,128.782777699283,2
118,3,하슬라아트월드,강원특별자치도 강릉시 강동면 율곡로 1441,#2024_여행가는달과함께하는_발도장여행지 #가족과함께 #강릉여행 #강원권 #강원권반려동물여행지 #관광지 #데이트코스 #미술관 #반려동물동반여행지 #복합문화공간 #산책길 #산책하기좋은곳 #연인과함께 #열린문화공간 #예술창작 #이색체험 #전망대 #전시관 #정동진 #종합예술 #친구와함께 #하슬라아트월드,25,119,37.7054583826871,129.007843904557,2
119,4,주문진해변,강원특별자치도 강릉시 주문진읍 주문북로 210,#가족여행 #강원_가볼만한곳 #강원권 #강원도_여행지_추천 #관광지 #기차여행 #나들이 #당일치기여행 #데이트코스 #바다풍경 #바다풍경여행 #서울근교여행 #아이와함께 #여름방학가볼만한곳 #여름여행 #연인과함께 #자연 #자연좋은곳 #주문진해변 #체험학습 #친구와함께 #힐링,25,120,37.910131525366,128.817676080292,2
120,5,강릉 경포해수욕장,강원특별자치도 강릉시 창해로 514,#2024_여행가는달과함께하는_발도장여행지 #강릉경포해수욕장 #강원권 #강원도_여행지_추천 #관광지 #바다경치 #바다풍경 #산불피해지역 #야간관광100선 #여름여행 #여름피서지 #여름휴가 #연중무휴 #자연 #친구와함께 #휴식여행 #휴식하기좋은곳,25,121,37.8057701120176,128.907481194757,2
121,6,강릉커피거리,강원특별자치도 강릉시 창해로14번길 20-1,#2023_설날_디저트맛집 #2024_여행가는달과함께하는_발도장여행지 #21_22한국관광100선 #23_24한국관광100선 #강릉가볼만한곳 #강릉커피거리 #강원권 #관광지 #데이트장소추천 #미식여행 #바다풍경 #안목카페거리 #안목해변 #야간관광100선 #연인과함께 #이색카페 #지역특화주전부리 #친구와함께 #커피거리 #한국관광100선,25,122,37.7726047009298,128.947338719945,2
122,1,삼척해변,강원특별자치도 삼척시 테마타운길 76,#가족여행 #강원권 #관광지 #기차여행 #나들이 #당일치기여행 #데이트코스 #바다풍경 #삼척해변 #서울근교여행 #아이와함께 #여름방학가볼만한곳 #여름여행 #연인과함께 #자연 #자연좋은곳 #체험학습 #친구와함께 #힐링,26,123,37.4684085599287,129.168353886384,2
123,2,월천해변,강원특별자치도 삼척시 원덕읍 월천리 178-1,#관광지 #바다경치 #여름피서지 #자연속으로 #자연여행 #자연좋은곳 #자연풍경 #자연환경 #휴식공간 #휴식여행 #휴식하기좋은곳 #힐링여행,26,124,37.1611689569142,129.353303229236,2
124,3,신남항,강원특별자치도 삼척시 원덕읍 신남길 127,#관광지,26,125,37.2670989007074,129.327879289472,2
125,4,삼척 해신당공원,강원특별자치도 삼척시 원덕읍 삼척로 1852-6,#가족여행 #강원권 #걷기길 #경치좋은곳 #관광지 #산책길 #산책하기 #산책하기좋은곳 #삼척해신당공원 #자연좋은곳 #전망좋은곳 #휴양여행 #힐링여행,26,126,37.2680172502562,129.327245702561,2
126,1,해금강테마박물관,경상남도 거제시 남부면 해금강로 120,#가족여행 #경상권 #교과서속여행 #문화시설 #박물관 #사계절 #실내여행지 #아이와함께 #작은박물관 #전시관 #체험학습 #추억여행 #해금강 #해금강테마박물관,27,127,34.7405570656169,128.662644411123,5
127,2,학동흑진주몽돌해변,경상남도 거제시 동부면 학동6길 18-1,#가족과함께 #경상권 #관광지 #남녀노소 #레포츠 #몽돌해변 #사진찍기좋은곳 #사진촬영 #산책코스 #아이와함께 #연인과함께 #자연 #자연발생 #자연좋은곳 #자연체험 #자연환경 #학동흑진주몽돌해변 #휴식여행 #휴식하기좋은곳,27,128,34.7733041468499,128.640242599561,5
128,3,도장포어촌체험마을,경상남도 거제시 남부면 도장포2길 24-1,#가족여행 #경상권 #관광지 #농어촌체험마을 #도장포어촌체험마을 #사진촬영명소 #어촌 #어촌마을 #어촌체험관광마을 #어촌체험마을 #자연좋은곳 #자연환경 #체험 #휴식공간 #휴식여행 #휴식하기 #휴식하기좋은곳,27,129,34.7416168372204,128.663763391784,5
129,4,거제도 해금강,경상남도 거제시 남부면 갈곶리,#2024_여행가는달과함께하는_발도장여행지 #가족여행 #거제도해금강 #경상권 #관광지 #자연,27,130,34.7406311738545,128.672022241146,5
130,1,옥계계곡,경상북도 영덕군 달산면 팔각산로,#가족여행 #경상권 #계곡 #관광지 #옥계계곡 #자연 #피서,28,131,36.3297145,129.258906,5
131,2,주산지(청송 국가지질공원),경상북도 청송군 주왕산면 주산지리,#2024_여행가는달과함께하는_발도장여행지 #23_24한국관광100선 #가족여행 #경상권 #관광지 #국가지질공원 #아이와함께 #연인과함께 #인생샷 #자연 #자연관광지 #자연발생 #자연속으로 #자연좋은곳 #자연풍경 #자연환경 #주산지 #지질공원 #지질명소 #청송_국가지질공원 #친구와함께 #한국관광100선 #휴양여행 #힐링,28,132,36.3741752397767,129.182595375202,5
132,3,산성계곡 생태공원,경상북도 영덕군 달산면 옥산리 515,#관광지,28,133,36.3501917541611,129.27635130979,5
133,1,우화정(내장산),전북특별자치도 정읍시 내장산로 936,#2024_여행가는달과함께하는_발도장여행지 #관광지 #내장산 #내장산국립공원 #연인과함께 #자연 #자연관광지 #자연발생 #자연좋은곳 #자연환경 #전망좋은곳 #정읍여행 #힐링,29,134,35.4933701835851,126.927709748391,6
134,2,내장산 단풍생태공원,전북특별자치도 정읍시 내장동 560,#관광지,29,135,35.5090223286437,126.9069599972,6
135,3,명인관,전북특별자치도 정읍시 내장산로 941-13,#더덕구이산채정식 #돌솥산채비빔밥 #맛집 #버섯전골 #불고기정식 #산채정식 #산채정식 #음식 #정읍시,29,136,35.4932782965006,126.929617873201,6
136,4,전설의 쌍화차 거리,전북특별자치도 정읍시 중앙1길 147,#2024_여행가는달과함께하는_발도장여행지 #건강식 #건강여행 #건강차 #관광지 #쌍화차거리 #음식테마거리 #전라권 #체험 #휴식공간 #휴식여행 #휴식하기 #휴식하기좋은곳,29,137,35.5675549245174,126.85675649357,6
137,1,삼척항 - 새천년도로변,강원특별자치도 삼척시 삼척항길 196,#레포츠 #밀레니엄도로 #삼척드라이브길 #삼척여행 #삼척해수욕장 #새천년도로 #영화외출 #해안드라이브,30,138,37.436187926718,129.188160340913,2
138,2,삼척해변,강원특별자치도 삼척시 테마타운길 76,#가족여행 #강원권 #관광지 #기차여행 #나들이 #당일치기여행 #데이트코스 #바다풍경 #삼척해변 #서울근교여행 #아이와함께 #여름방학가볼만한곳 #여름여행 #연인과함께 #자연 #자연좋은곳 #체험학습 #친구와함께 #힐링,30,139,37.4684085599287,129.168353886384,2
139,3,비치조각공원,강원특별자치도 삼척시 새천년도로 326,#강원권 #관광지 #데이트코스 #바다풍경 #비치조각공원 #산책길 #산책하기 #산책하기좋은곳 #여름여행 #여름휴가 #연인과함께 #이색카페 #휴식여행 #휴식하기좋은곳,30,140,37.4567269334754,129.186043895188,2
140,4,소망의탑,강원특별자치도 삼척시 새천년도로 233,#2023_설날_소원 #강원권 #경치좋은곳 #관광지 #기념탑 #바다경치 #산책길 #산책하기 #산책하기좋은곳 #소망의탑 #연중무휴 #자연풍경 #자연환경 #휴식여행 #휴식하기,30,141,37.450839030039,129.188403973267,2
141,5,작은후진해수욕장,강원특별자치도 삼척시 새천년도로 467,#가족과함께 #강원권 #관광지 #바다 #삼척여행 #삼척해수욕장 #여름피서지 #자연 #자연속으로 #자연여행 #자연좋은곳 #자연풍경 #자연환경,30,142,37.4638818457361,129.175891873231,2
142,1,섯알오름,제주특별자치도 서귀포시 대정읍 상모리 1618,#관광지 #알뜨르비행장 #자연관광지 #제주43사건 #제주관광 #제주도오름 #제주역사여행,31,143,33.2041831726414,126.28155185878,7
143,2,송악산,제주특별자치도 서귀포시 대정읍 송악관광로,#가족여행 #걷기길 #관광지 #바다풍경 #송악산 #연인과함께 #자연 #제주권 #친구와함께,31,144,33.2077439,126.290967,7
144,3,용머리해안,제주특별자치도 서귀포시 안덕면 산방로 218-10,#2024_여행가는달과함께하는_발도장여행지 #경치여행 #경치좋은곳 #관광지 #바다경치 #바다내음 #바다풍경 #산방산 #용머리해안 #유네스코 #자연 #자연경관 #자연속으로 #자연여행 #자연좋은곳 #자연풍경 #자연환경 #전시관 #제주가볼만한곳 #제주권 #제주도_가볼만한곳 #제주여행 #제주트레일 #제주해변 #친환경여행,31,145,33.2366379775546,126.313292062423,7
145,4,발자국화석공원,제주특별자치도 서귀포시 대정읍 형제해안로 192,#관광지 #동물발자국 #사계해안 #송악해안도로 #자연관광지 #제주관광 #제주발자국화석 #제주올레10코스,31,146,33.2173594034123,126.293135312424,7
146,5,사계해변,제주특별자치도 서귀포시 안덕면 사계리,#2024_여행가는달과함께하는_발도장여행지 #경치좋은곳 #관광지 #마린포트홀 #바다경치 #여름피서지 #자연속으로 #자연여행 #자연좋은곳 #자연풍경 #자연환경 #제주해변 #최남단해변 #휴식여행 #휴식하기좋은곳,31,147,33.2316941376585,126.306514122101,7
147,6,산방산(제주),제주특별자치도 서귀포시 안덕면 산방로 218-10,#가족여행 #걷기길 #관광지 #사진찍기좋은곳 #산방산(제주) #연인과함께 #자연 #자연관광지 #자연속으로 #자연여행 #자연좋은곳 #자연환경 #제주권 #제주도_가볼만한곳 #힐링,31,148,33.2366379775546,126.313292062423,7
148,1,의암호스카이워크,강원특별자치도 춘천시 칠전동 485,#가족과함께 #걷기길 #관광지 #남녀노소 #산책코스 #산책하기좋은곳 #스카이워크 #아이와함께 #연인과함께 #의암호 #자연좋은곳 #휴식여행 #휴식하기 #휴식하기좋은곳,32,149,37.8471139560505,127.679946417046,2
149,2,춘천평화생태공원꿈자람물정원,강원특별자치도 춘천시 소양로3가 128-1,#관광지,32,150,37.8807609751755,127.720480198115,2
150,3,춘천문학공원,강원특별자치도 춘천시 서면 금산리 500-4,#경치좋은곳 #관광지 #남녀노소 #문학공원 #산책하기좋은곳 #수변공원 #아이와함께 #자연환경 #휴식하기좋은곳 #힐링산책,32,151,37.9009463402056,127.696888322688,2
151,4,공지천유원지,강원특별자치도 춘천시 이디오피아길 25,#관광지,32,152,37.8746258252367,127.709531349705,2
152,5,춘천 애니메이션박물관&토이로봇관,강원특별자치도 춘천시 서면 박사로 854,#가족과함께 #가족여행 #문화시설 #아이와함께 #이색체험 #체험학습 #춘천가볼만한곳,32,153,37.8930610610383,127.691892620055,2
153,1,사촌해수욕장,경상남도 남해군 남면 남면로1229번길 44,#관광지 #사촌해수욕장 #여름피서지 #자연 #해수욕장,33,154,34.7435548594097,127.85634020793,5
154,2,"두곡, 월포해수욕장",경상남도 남해군 남면 남면로111번길 77,#가족여행 #경상권 #관광지 #두곡해수욕장 #바다풍경 #여름여행 #여름휴가 #연인과함께 #월포해수욕장 #자연 #친구와함께 #피서여행,33,155,34.7673097748559,127.905738163041,5
155,3,가천 다랭이마을,경상남도 남해군 남면 홍현리 남면로 679번길 21,#15_16한국관광100선 #2024_여행가는달과함께하는_발도장여행지 #가족여행 #가천다랭이마을 #경남 #경상권 #경상권 #관광지 #남해다랭이마을 #숙박 #자연 #자연좋은곳 #한국관광100선,33,156,34.7275201227888,127.894034677694,5
156,4,평산항,경상남도 남해군 남면 남면로1739번길 40,#경남남해평산항 #경남평산항 #관광지 #남해여행 #남해평산마을 #남해평산항,33,157,34.7672036110153,127.847938587121,5
157,5,서상항,경상남도 남해군 서면 서상리 1316-6,#관광지 #남해낚시 #남해산책길 #남해서상항 #남해여행 #남해항구,33,158,34.8093724034911,127.833355373001,5
158,1,계족산 황톳길,대전광역시 대덕구 장동 산85,#19_20한국관광100선 #2024_여행가는달과함께하는_발도장여행지 #21_22한국관광100선 #가족과함께 #걷기좋은곳 #계족산 #계족산황톳길 #레포츠 #산책코스 #숙박대전_가볼만한곳 #숙박대전_추천기사 #야간관광100선 #연인과함께 #충청권 #트레킹 #한국관광100선 #황톳길,34,159,36.3947053348808,127.45384874619,3
159,2,대청호오백리길,대전광역시 동구 천개동로 34,#가족여행 #대청호오백리길 #레포츠 #산책코스 #충청권,34,160,36.3738592355726,127.471949740377,3
160,3,한밭수목원,대전광역시 서구 둔산대로 169,#2024_여행가는달과함께하는_발도장여행지 #23_24한국관광100선 #가족여행 #걷기길 #관광지 #나들이 #연인과함께 #자연 #자연&숲 #자연좋은곳 #장미여행지 #충청권 #치유 #한국관광100선 #한밭수목원 #힐링,34,161,36.3664690153972,127.388017285001,3
161,4,천연기념물센터(대전),대전광역시 서구 유등로 927,#2024_여행가는달과함께하는_발도장여행지 #가족여행 #가족체험여행 #교과서속정보 #대전가볼만한곳 #문화시설 #미세먼지_피하는_실내여행 #박물관 #사계절 #아이와함께 #여름방학가볼만한곳 #이색체험 #자연유산 #전시 #천연기념물 #천연기념물센터 #충청권,34,162,36.3678329653785,127.392506263944,3
162,1,하평해변(동해),강원특별자치도 동해시 평릉동 40-1,#경치여행 #경치좋은곳 #관광지 #바다경치 #여름피서지 #자연관광지 #자연속으로 #자연여행 #자연좋은곳 #자연풍경 #자연환경,35,163,37.5335207609205,129.116389948966,2
163,2,추암 촛대바위,강원특별자치도 동해시 추암동,#2024_여행가는달과함께하는_발도장여행지 #강원권 #강원도_여행지_추천 #관광지 #명소 #산불피해지역 #자연 #추암촛대바위 #풍경,35,164,37.4706409837437,129.149990688796,2
164,3,묵호등대,강원특별자치도 동해시 해맞이길 300,#강원권 #강원도_여행지_추천 #강원웰니스관광지 #관광지 #동해웰니스관광 #드라마촬영지 #묵호등대 #바다풍경 #산불피해지역 #연인과함께 #영화촬영지 #웰니스관광 #자연,35,165,37.5538447969701,129.118156978433,2
165,4,동해 논골담길 (등대 담화마을),강원특별자치도 동해시 일출로 97,#가족여행 #강원권 #레포츠 #문화관광해설사 #산불피해지역 #산책코스 #주말여행,35,166,37.5521623124997,129.118316967169,2
166,5,망상해변,강원특별자치도 동해시 동해대로 6270-10,#가족여행 #강원_가볼만한곳 #강원도_여행지_추천 #관광지 #기차여행 #나들이 #당일치기여행 #데이트코스 #동해바다 #동해안 #망상해변 #바다풍경 #바다풍경여행 #서울근교여행 #아이와함께 #여름방학가볼만한곳 #여름여행 #연인과함께 #일출명소 #자연 #자연좋은곳 #체험학습 #친구와함께 #해돋이 #힐링,35,167,37.5922569104686,129.089689992668,2
167,1,운일암 반일암 계곡,전북특별자치도 진안군 주천면 동상주천로 1926,#2024_여행가는달과함께하는_발도장여행지 #계곡 #관광지 #국내힐링여행 #등산 #여름여행 #여름피서지 #운일암반일암 #운일암반일암계곡 #자연 #자연속으로 #자연여행 #자연좋은곳 #자연풍경 #자연환경 #전라권 #진안계곡구름다리 #진안구름다리 #진안반일암 #진안옥수청산 #진안운일암 #힐링여행 #힐링여행지,36,168,35.9758698371627,127.409151929386,6
168,2,부귀 편백숲 삼림욕장,전북특별자치도 진안군 부귀면 전진로 1935-15,#경치좋은곳 #관광지 #자연 #자연관광지 #자연속으로 #자연여행 #자연좋은곳 #자연체험 #자연풍경 #자연환경 #휴식공간 #휴식여행 #휴식하기 #휴식하기좋은곳,36,169,35.8416002032937,127.347726475883,6
169,3,용담호,전북특별자치도 진안군 용담면 월계리,#2024_여행가는달과함께하는_발도장여행지 #가족과함께 #관광지 #드라이브코스 #벚꽃길 #벚꽃명소 #용담호 #자연 #자연관광지,36,170,35.9314635350718,127.507111938913,6
170,1,속동전망대,충청남도 홍성군 서부면 남당항로 689,#갯벌 #경치좋은곳 #관광지 #데이트코스 #바다경치 #바다전망 #바다전망대 #사진찍기좋은곳 #사진촬영 #속동갯벌 #연인과함께 #자연좋은곳 #자연환경 #전망대 #커플데이트 #타이타닉포토존 #해안전망대 #홍성속동전망대,37,171,36.5770226953143,126.464592720503,3
171,2,홍성방조제,충청남도 홍성군 서부면,#관광지 #바다풍경 #방조제 #자연 #충청권 #홍성 #홍성방조제 #홍성여행 #힐링,37,172,36.5803273092588,126.51723142167,3
172,3,남당항,충청남도 홍성군 서부면 남당리,#가족과함께 #관광지 #남당항 #대하 #대하축제 #미식여행 #바다풍경 #새조개 #새조개축제 #수산물 #자연 #죽도 #천수만 #철새도래지 #충청권 #홍성남당항,37,173,36.5398850176414,126.479723667165,3
173,4,천수만(철새도래지),충청남도 서산시 부석면,#간월도 #간월호 #겨울철새 #관광지 #서산방조제 #서산버드랜드 #서산천수만 #자연 #천수만 #철새도래지 #충청권 #탐조관광명소,37,174,36.7148738592682,126.393763892659,3
174,1,정지용 생가,충청북도 옥천군 옥천읍 향수길 56,#관광지 #교과서속여행 #아이와함께 #역사 #역사공부 #역사관광지 #역사를품은곳 #역사문화재 #역사속으로 #역사유적 #역사유적지 #역사이야기 #역사탐험 #정지용생가 #충청권,38,175,36.3149373923949,127.581608157386,3
175,2,교동저수지(교동생태습지),충청북도 옥천군 옥천읍 교동리 155-7번지,#관광지,38,176,36.3200716952834,127.582466464175,3
176,3,정지용 문학관,충청북도 옥천군 옥천읍 향수길 56,#가족과함께 #교과서속여행 #기념관 #남녀노소 #문학관 #문학기행 #문화시설 #아이와함께 #옥천가볼만한곳 #전시회 #정지용문학관 #정지용생가 #주말추천여행지 #충청권,38,177,36.3149373923949,127.581608157386,3
177,1,관방제림,전라남도 담양군 담양읍 객사리1,#2024_여행가는달과함께하는_발도장여행지 #걷기길 #관광지 #관방제림 #숙박대전_가볼만한곳 #숙박대전_추천기사 #연인과함께 #연중무휴 #자연 #자연좋은곳 #전라권,14,178,35.3235795188355,126.988584292126,6
178,2,해동문화예술촌,전라남도 담양군 담양읍 지침1길 6,#도시예술 #문화시설 #문화예술복합공간 #실험예술 #정기적주제전시 #체험프로그램 #해동문화예술촌,14,179,35.3175572435866,126.98383422481,6
179,3,죽녹원,전라남도 담양군 담양읍 죽녹원로 119,#2024_여행가는달과함께하는_발도장여행지 #21_22한국관광100선 #23_24한국관광100선 #SNS속_인생샷명소 #가족과함께 #가족여행 #관광지 #담양죽녹원 #생태관광지 #숲체험원 #연인과함께 #연중무휴 #인생샷 #인생샷여행 #자연 #자연좋은곳 #전남 #전라권 #전라권 #죽녹원 #친구와함께 #프사_백만장_인생샷 #한국관광100선 #휴양여행 #힐링여행,14,180,35.3253566595919,126.986615504496,6
180,4,승일식당,전라남도 담양군 담양읍 중앙로 98-1,#냉면담백한_맛 #담양군 #돼지갈비 #맛집 #숯불갈비 #숯불돼지갈비 #음식 #참숯불갈비,14,181,35.3220036828955,126.982328651181,6
181,1,봉화선유교,경상북도 봉화군 명호면 풍호리,#35번국도 #경북출렁다리 #관광지 #대한민국아름다운길 #범바위전망대 #봉화가볼만한곳 #봉화여행 #예던길 #퇴계이황길,39,182,36.8441155558057,128.873643220587,5
182,2,월영교,경상북도 안동시 상아동,#2022_추석_별빛_가득_야간관광 #2024_여행가는달과함께하는_발도장여행지 #INFP낭만여행 #가족여행 #경상권 #관광지 #봄꽃여행 #산책하기 #산책하기좋은곳 #안동가볼만한곳 #안동여행 #야간 #야간관람 #야경 #야경좋은곳 #연인과함께 #월영교 #자연 #힐링여행,39,183,36.578637577453,128.747210868584,5
183,3,청량산도립공원,경상북도 봉화군 명호면 광석길 39,#가족여행 #관광지 #꽃여행 #등산 #등산로 #명승23호 #봉화청량산 #봉화트레킹 #아이와함께 #연인과함께 #자연 #자연좋은곳 #전망좋은곳 #조깅 #청량사 #청량산 #청량산박물관 #친구와함께 #퇴계이황,39,184,36.788082224382,128.893878195321,5
184,4,범바위 전망대,경상북도 봉화군 명호면 도천리 산 343-1,#관광지,39,185,36.8694907257737,128.905433086668,5
185,1,보성녹차 시배지,전라남도 보성군 문덕면 죽산길 506-8,#관광지,40,186,34.9613402347513,127.133342183115,6
186,2,대원사(보성),전라남도 보성군 문덕면 죽산길 506-8,#가족여행 #관광지 #교과서속여행 #대원사 #불교 #불교문화 #사찰 #사찰여행 #산사 #아이와함께 #역사 #역사유적지 #자연환경 #전통사찰 #전통역사문화체험 #종교 #친구와함께 #템플스테이 #한국불교 #휴식하기좋은곳,40,187,34.9613402347513,127.133342183115,6
187,3,대원사 티벳박물관,전라남도 보성군 죽산길 520-1,#가족여행 #가족체험여행 #다문화 #문화시설 #박물관 #사계절 #아이와함께 #이색체험 #인증샷백만개_인스타_갬성여행 #전라권 #체험학습,40,188,34.9591516469849,127.132037035948,6
188,1,장사해수욕장,경상북도 영덕군 남정면 동해대로 3592,#가족여행 #관광지 #동해바다 #동해해수욕장 #바다경치 #바다내음 #바다풍경 #여름피서지 #여름휴가 #영덕해수욕장 #자연 #자연좋은곳 #자연풍경 #피서 #해양레포츠,41,189,36.282418704991,129.37559384725,5
189,2,영덕해맞이공원,경상북도 영덕군 영덕읍 영덕대게로 968,#2024_여행가는달과함께하는_발도장여행지 #경상권 #경치좋은곳 #관광지 #데이트코스 #바다풍경 #연인과함께 #연중무휴 #영덕블루로드 #영덕해맞이공원 #자연속으로 #자연좋은곳 #자연풍경 #자연환경 #전망좋은곳 #창포말등대 #해맞이공원 #해맞이여행,41,190,36.4221012996321,129.433050463442,5
190,3,강구항,경상북도 영덕군 강구면 강구리 253-51,#강구대게거리 #강구항 #경상권 #관광지 #대게거리 #드라마촬영지 #영덕대게 #자연 #항구,41,191,36.3587601610828,129.391281313436,5
191,4,영덕풍력발전단지,경상북도 영덕군 영덕읍 창포리,#가족여행 #경북신재생에너지 #관광지 #산업관광 #산업관광지 #신재생에너지 #아이와함께 #연중무휴 #영덕블루로드 #영덕일출명소 #영덕풍력발전단지 #영덕해맞이공원 #인생샷 #일출일몰명소 #창포리풍력발전단지 #친환경에너지 #테마 #풍력발전소,41,192,36.4160307447995,129.424240828284,5
192,5,장사해수욕장,경상북도 영덕군 남정면 동해대로 3592,#가족여행 #관광지 #동해바다 #동해해수욕장 #바다경치 #바다내음 #바다풍경 #여름피서지 #여름휴가 #영덕해수욕장 #자연 #자연좋은곳 #자연풍경 #피서 #해양레포츠,41,193,36.282418704991,129.37559384725,5
193,1,광양 매화마을,전라남도 광양시 다압면 섬진강매화로 1563-1,#2024_여행가는달과함께하는_발도장여행지 #가족과함께 #가족체험 #관광지 #농촌체험 #농촌체험마을 #농촌체험여행 #농촌체험학습 #농촌테마파크 #아이와함께 #자연마을 #자연풍경 #자연환경 #체험,42,194,35.0803490967465,127.715305119184,6
194,2,최참판댁,경상남도 하동군 악양면 평사리길 66-7,#가족과함께 #가족여행 #경상권 #관광지 #드라마촬영지 #소설토지 #슬로우시티 #역사 #역사공부 #역사관광지 #역사를품은곳 #역사속 #역사여행 #역사이야기 #역사탐방 #역사탐험 #전통가옥 #최참판댁 #한옥,42,195,35.1559090452533,127.688434600684,5
195,3,하동 화개장터,경상남도 하동군 화개면 쌍계로 15,#2024_여행가는달과함께하는_발도장여행지 #가족여행 #경상권 #기차여행 #나들이 #나홀로여행 #먹거리 #쇼핑 #시장맛집 #아이와함께 #연인과함께 #전통시장 #전통시장투어 #체험학습 #친구와함께 #하동화개장터 #힐링,42,196,35.1880401874567,127.624086776098,5
196,4,쌍계사(하동),경상남도 하동군 화개면 쌍계사길 59,#경상권 #관광지 #불교 #불교사찰 #사찰 #산사 #역사 #역사유적지 #자연속으로 #자연환경 #지리산사찰 #지리산여행 #하동사찰 #하동여행 #한국불교 #휴식공간 #휴식여행 #휴식하기 #휴식하기좋은곳,42,197,35.2327861183024,127.651035235626,5
197,1,죽성성당(드림세트장),부산광역시 기장군 기장읍 죽성리 134-7,#2024_여행가는달과함께하는_발도장여행지 #TV속촬영지여행 #경치좋은곳 #관광지 #드라마촬영지 #드라이브코스 #바다경치 #부산가볼만한곳 #사진찍기좋은곳 #연인과함께 #이색체험 #죽성성당 #체험관광지 #해안도로,43,198,35.2411560063801,129.247892512776,4
198,2,대변마을,부산광역시 기장군 기장읍 기장해안로 605,#경상권 #관광지 #대변마을 #바다내음 #숙박 #어촌마을 #자연 #자연환경 #휴식여행 #휴식하기좋은곳 #힐링여행,43,199,35.2247796540003,129.230369319202,4
199,3,월전포구(월전방파제),부산광역시 기장군 기장읍 월전해안길 31,#관광지 #기장월전방파제 #기장월전포구 #부산여행 #부산월전방파제 #부산월전포구,43,200,35.2378637098117,129.245349149867,4
200,4,해동 용궁사(부산),부산광역시 기장군 기장읍 용궁길 86,#2023_설날_소원 #2024_여행가는달과함께하는_발도장여행지 #INFP혼행 #경상권 #경치좋은곳 #관광지 #기장군 #바다경치 #부산가볼만한곳 #불교 #불교문화 #사찰 #사찰여행 #산사 #역사 #연중무휴 #전통사찰 #한국불교 #해동용궁사 #휴식공간 #휴식여행 #휴식하기 #휴식하기좋은곳,43,201,35.1882392674714,129.223245860198,4
201,5,죽성항(황학대),부산광역시 기장군 기장읍 죽성리 30-33,#관광지,43,202,35.242609311602,129.246821166397,4
202,1,삼봉해수욕장,충청남도 태안군 안면읍,#가족여행 #관광지 #나들이 #데이트코스 #바다풍경 #삼봉해수욕장 #아이와함께 #여름여행 #연인과함께 #자연 #자연좋은곳 #체험학습 #충청권 #친구와함께 #피서여행 #힐링,44,203,36.5205361060368,126.344511519837,3
203,2,두에기해변,충청남도 태안군 안면읍 승언리 2004-8,#관광지 #두에기해수욕장 #바다경치 #여름피서지 #자연속으로 #자연여행 #자연좋은곳 #자연풍경 #자연환경 #태안두에기 #태안두에기해변 #태안여행 #태안피서지 #태안해변 #태안해수욕장 #휴식여행 #휴식하기좋은곳,44,204,36.5190674308336,126.328649779203,3
204,3,기지포해수욕장,충청남도 태안군 안면읍 해안관광로 745-19,#가족여행 #관광지 #기지포해수욕장 #바다풍경 #여름여행 #여름피서지 #여름휴가 #연인과함께 #자연 #충청권 #친구와함께,44,205,36.562731298958,126.32235183895,3
205,4,밧개해수욕장,충청남도 태안군 안면읍 승언리,#가족여행 #관광지 #바다풍경 #밧개해수욕장 #여름여행 #여름휴가 #연인과함께 #일몰 #자연 #충청권 #친구와함께 #캠핑 #태안밧개해수욕장 #태안밧개해수욕장여행 #태안밧개해수욕장캠핑 #해루질,44,206,36.5051678525711,126.362764309111,3
206,5,백사장해수욕장,충청남도 태안군 안면읍 창기리,#가족여행 #관광지 #바다풍경 #백사장해수욕장 #여름여행 #여름휴가 #연인과함께 #자연 #충청권 #친구와함께,44,207,36.5854621120178,126.348012379501,3
207,6,방포해수욕장,충청남도 태안군 안면읍 방포1길 29-1,#가족여행 #관광지 #나들이 #데이트코스 #바다풍경 #방포해수욕장 #방포해수욕장해변몽돌 #서해바다 #서해해수욕장 #아이와함께 #여름여행 #연인과함께 #자연 #자연좋은곳 #체험학습 #충청권 #친구와함께 #태안가족여행 #태안바다 #태안방포해수욕장 #태안아담한해수욕장 #피서여행 #해변벤치 #힐링,44,208,36.5088135684702,126.333101011874,3
208,7,두여해수욕장,충청남도 태안군 안면읍 정당리 1313-1,#경치여행 #경치좋은곳 #관광지 #여름피서지 #자연 #자연속으로 #자연여행 #자연좋은곳 #자연풍경 #자연환경 #해수욕장,44,209,36.543658562547,126.329667679297,3
209,8,꽃지해수욕장,충청남도 태안군 안면읍 승언리,#2024_여행가는달과함께하는_발도장여행지 #21_22한국관광100선 #23_24한국관광100선 #관광지 #꽃지해수욕장 #바다풍경 #아이와함께 #연인과함께 #자연 #충청권 #친구와함께 #한국관광100선,44,210,36.5051678525711,126.362764309111,3
210,9,안면해수욕장,충청남도 태안군 안면읍 정당리,#가족여행 #관광지 #레포츠 #바다낚시 #바다내음 #바다풍경 #안면해수욕장 #자연 #충청권 #친구와함께 #휴식하기좋은곳,44,211,36.5291377720412,126.379785415565,3
211,1,대방진굴항,경상남도 사천시 굴항길 99,#가족여행 #경치좋은곳 #관광지 #대방진굴항 #사천가볼만한곳 #아이와함께 #역사 #연인과함께 #자연속으로 #자연여행 #자연좋은곳 #자연풍경 #자연환경 #친구와함께,45,212,34.9288991,128.05631,5
212,2,모충공원,경상남도 사천시 송포동 1144-1,#관광지,45,213,34.966464942499,128.048110647694,5
213,3,삼천포대교공원,경상남도 사천시 사천대로 17,#가족과함께 #경치좋은곳 #관광지 #드라이브 #산책코스 #산책하기좋은곳 #삼천포대교 #삼천포대교공원 #아이와함께 #야간관광100선 #야경맛집 #연인과함께 #휴식공간 #휴식공원 #휴식여행 #휴식하기좋은곳,45,214,34.932294187661,128.052334830435,5
214,4,삼천포항,경상남도 사천시 어시장길 34-4,#관광지 #자연,45,215,34.9265526584522,128.069652461976,5
215,1,교동도(강화),인천광역시 강화군 교동면 교동남로 35,#2021_휴가철찾아가고싶은_33섬 #2023찾아가고싶은섬 #2023찾아가고싶은섬_가을섬 #가족과함께 #강화가볼만한곳 #강화도여행 #관광지 #교동도 #시간이멈춘섬 #아이와함께 #자연 #자연마을 #자연좋은곳 #자연환경 #휴식여행 #휴식하기좋은곳 #힐링여행,46,216,37.7804893804077,126.28104964275,1
216,2,조양방직,인천광역시 강화군 강화읍 향나무길5번길 12,#2024_여행가는달과함께하는_발도장여행지 #SNS속_인생샷명소 #데이트 #레트로 #레트로여행 #연인과함께 #음식 #인생샷 #조양방직 #친구와함께 #커플데이트,46,217,37.7467787566069,126.480970774647,1
217,3,애기봉평화생태공원,경기도 김포시 하성면 평화공원로 139,#경치여행 #경치좋은곳 #관광지 #수도권 #안보관광 #애기봉 #자연 #자연좋은곳 #자연풍경 #자연환경 #전망좋은곳,46,218,37.7432509919701,126.59406775424,1
218,1,화암사(고성),강원특별자치도 고성군 토성면 화암사길 100,#2024_여행가는달과함께하는_발도장여행지 #가족과함께 #강원권 #고성화암사 #관광지 #불교 #불교문화 #불교사찰 #사찰 #사찰여행 #역사 #연중개방 #자연환경 #전통차 #종교 #한국불교 #화암사 #휴식공간 #휴식여행 #휴식하기 #휴식하기좋은곳,47,219,38.2263035536854,128.471142957894,2
219,2,해산전망대,강원특별자치도 화천군 화천읍 동촌리 산11-7,#경치좋은곳 #관광지 #산책길 #산책하기 #산책하기좋은곳 #자연속으로 #자연여행 #자연좋은곳 #자연풍경 #자연환경 #휴식공간 #휴식여행 #휴식하기 #휴식하기좋은곳,47,220,38.1905004135509,127.816928076441,2
220,3,박수근미술관,강원특별자치도 양구군 양구읍 박수근로 265-15,#DMZ #강원권 #기차여행 #나홀로여행 #단체관람 #당일치기여행 #문화시설 #미술관 #박수근미술관 #생태여행 #아이와함께 #안보여행 #양구군립미술관 #예술 #전시 #전시관 #친구와함께 #평화누리길 #평화생태관광,47,221,38.0961751137205,127.981615832024,2
221,4,고석정 꽃밭,강원특별자치도 철원군 동송읍 태봉로 1769,#고석정 #관광지 #구절초 #꽃밭 #맨드라미 #백일홍 #사진찍기좋은곳 #철원가볼만한곳 #코스모스 #해바라기,47,222,38.1882273230829,127.295506161815,2
222,5,평화의댐(화천),강원특별자치도 화천군 화천읍 평화로 3481-18,#가족여행 #강원권 #관광지 #아이와함께 #자연 #평화의댐 #화천가볼만한곳,47,223,38.2136611859135,127.846159229875,2
223,6,양구 수목원,강원특별자치도 양구군 동면 숨골로310번길 131,#가족 #가족나들이 #가족체험 #관광지 #수목원 #아이와함게 #아이와함께가기좋은 #양구가볼만한곳 #양구수목원,47,224,38.1899741543712,128.074030282585,2
224,7,소이산,강원특별자치도 철원군 철원읍 관전리,#관광지 #산 #철원군,47,225,38.2497815742604,127.202198569735,2
225,8,미시령옛길,강원특별자치도 고성군 토성면 미시령옛길,#강원도여행 #고성관광 #드라이브 #레포츠 #미시령고개 #인제관광,47,226,38.2187296,128.4127709,2
226,1,백제불교최초도래지,전라남도 영광군 법성면 백제문화로 203,#가족여행 #관광지 #기차여행 #나들이 #백제불교최초도래지 #사찰&산사 #아이와함께 #역사 #자연좋은곳 #전라권 #전통&역사문화체험 #체험학습 #친구와함께 #힐링,48,227,35.3619446212377,126.431134890485,6
227,2,백수해안도로,전라남도 영광군 백수읍 해안로 957,#2024_여행가는달과함께하는_발도장여행지 #경치좋은곳 #관광지 #드라이브여행 #드라이브코스 #드라이브코스추천 #바다경치 #백수해안도로 #연인과함께 #이른봄여행 #자연 #전라권 #추천드라이브코스 #풍경좋은곳 #해안도로 #해안드라이브 #해안드라이브코스 #해안절경 #휴식여행 #휴식하기좋은곳,48,228,35.353731926146,126.38928135481,6
228,3,내산서원,전라남도 영광군 불갑면 강항로 101,#관광지 #역사 #역사공부 #역사관광지 #역사를품은곳 #역사문화관광 #역사문화재 #역사속 #역사속으로 #역사여행 #역사유적 #역사이야기 #역사탐험 #영광문화재 #영광서원 #영광여행 #영광여행추천 #전라남도여행 #전라남도여행지추천,48,229,35.2118482238982,126.517909689703,6
229,4,영광 법성진 숲쟁이,전라남도 영광군 법성면 법성리 821-1,#가족여행 #관광지 #기차여행 #나들이 #아이와함께 #연인과함께 #영광명승 #영광명승지 #영광법성진 #영광법성진성 #영광법성진숲쟁이 #영광법성포 #영광법성포굴비거리 #영광숲쟁이 #영광여행 #영광여행추천 #자연좋은곳 #전라권 #전라남도여행 #전라남도여행지추천 #체험학습 #친구와함께 #힐링,48,230,35.3652804418754,126.443927655211,6
230,5,칠산타워,전라남도 영광군 염산면 향화로 2-10,#감성사진 #경치여행 #경치좋은곳 #관광지 #노을맛집 #바다경치 #바다내음 #사진찍기 #사진찍기좋은곳 #사진촬영명소,48,231,35.1686337149423,126.360306734241,6
231,1,선암사 [유네스코 세계유산],전라남도 순천시 승주읍 선암사길 450,#2024_여행가는달과함께하는_발도장여행지 #가족여행 #관광지 #교과서속여행 #불교 #불교문화 #사찰 #사찰&산사 #사찰여행 #선암사 #선암사(순천) #승선교 #아이와함께 #역사 #역사유적지 #유네스코 #유네스코세계문화유산 #유네스코세계유산 #자연좋은곳 #전통사찰 #전통역사문화체험 #종교 #친구와함께 #템플스테이 #한국불교,49,232,34.9961821309022,127.327355954493,6
232,2,순천전통야생차체험관,전라남도 순천시 승주읍 선암사길 450-1,#가족과함께 #가족여행 #관광지 #다도체험 #순천야생차 #순천여행 #순천여행가볼만한곳 #순천여행추천 #순천웰빙공간 #순천전통야생차체험관 #순천체험공간 #순천한옥체험 #아이와함께 #이색체험 #자연좋은곳 #자연환경 #전라권 #전라남도여행 #체험 #체험프로그램 #휴식공간 #휴식여행 #휴식하기 #휴식하기좋은곳,49,233,34.9948984835674,127.334070644838,6
233,3,송광사(순천),전라남도 순천시 송광면 송광사안길 100,#가족여행 #관광지 #교과서속여행 #불교 #불교문화 #불교사찰 #사찰 #사찰여행 #산사 #송광사 #아이와함께 #역사 #역사유적지 #전통사찰 #전통역사문화체험 #종교 #친구와함께 #템플스테이 #한국불교 #휴식공간 #휴식여행 #휴식하기 #휴식하기좋은곳 #힐링 #힐링&휴양,49,234,35.0023635450929,127.274870647975,6
234,4,순천 낙안읍성,전라남도 순천시 낙안면 평촌리,#2024_여행가는달과함께하는_발도장여행지 #3대읍성 #CNN선정 #관광지 #낙안읍성 #드라마촬영지 #순천낙안읍성 #역사 #역사관광 #역사관광지 #역사를품은곳 #역사문화재 #역사속 #역사속으로 #역사여행 #역사유적지 #역사이야기 #역사적 #역사탐험 #읍성 #전라권,49,235,34.8926561013448,127.338243910273,6
235,5,"순천만습지 (구, 순천만자연생태공원)",전라남도 순천시 순천만길 513-25,#2011 #2022 #2022한국관광의별 #2024_여행가는달과함께하는_발도장여행지 #21_22한국관광100선 #23_24한국관광100선 #가족여행 #걷기길 #관광지 #생태관광 #생태관광지 #수상내역 #순천만습지 #순천만자연생태공원 #자연 #자연좋은곳 #장애물없는 관광환경 우수시설 부문 #전라권 #전망좋은곳 #친환경여행 #한국관광100선 #한국관광의별,49,236,34.8857970100738,127.5092833426,6
236,6,순천만 국가정원,전라남도 순천시 국가정원1호길 47,#2024_여행가는달과함께하는_발도장여행지 #가족과함께 #가족여행 #걷기여행 #관광지 #봄나들이 #산책하기좋은곳 #순천만국가정원 #아이와함께 #이색체험 #자연좋은곳 #자연환경 #전라권 #친환경여행,49,237,34.928871680184,127.500801495864,6
237,1,벽계(찰비)계곡,경상남도 의령군 궁류면 벽계로 201,#경상권 #경치좋은곳 #관광지 #민물낚시 #벽계계곡 #야영 #자연 #자연좋은곳,50,238,35.4260494898741,128.208094179887,5
238,2,한우산,경상남도 의령군 궁류면 벽계리,#경상권 #관광지 #등산 #레포츠 #사계절 #영화촬영지 #의령한우산 #자연 #자연관광 #자연속으로 #자연여행 #자연좋은곳 #자연풍경 #자연환경 #한우산 #휴식공간 #휴식여행 #휴식하기 #휴식하기좋은곳 #힐링여행,50,239,35.4144971152107,128.207887463166,5
239,3,일붕사(의령),경상남도 의령군 궁류면 청정로 1202-15,#2024_여행가는달과함께하는_발도장여행지 #가족여행 #경상권 #관광지 #기차여행 #나들이 #동굴법당 #봉황산 #불교 #불교문화 #성덕암 #아이와함께 #역사 #의령사찰 #종교 #체험학습 #친구와함께 #한국불교 #힐링,50,240,35.4355636564083,128.240146699079,5
240,4,황소걸음식당,경상북도 영주시 조암로 11,#맛집 #영주맛집 #음식 #음식점 #한식 #한우곰탕 #한우곰탕 #한우불고기 #한우숯불구이 #한우육회가성비_갑 #한우차돌박이 #황소걸음식당,50,241,36.8003921807466,128.63160320668,5
241,5,창녕 우포늪,경상남도 창녕군 유어면 우포늪길 220,#2024_여행가는달과함께하는_발도장여행지 #21_22한국관광100선 #걷기길 #경상권 #공룡발자국 #관광지 #내륙습지 #람사르협약 #백조도래지 #생태관광 #생태관광자원 부문 #생태관광지 #생태습지 #우포늪 #자연 #자연사박물관 #자연좋은곳 #전망좋은곳 #천연기념물 #친환경여행 #한국관광100선 #한국관광의별,50,242,35.5445608846934,128.41911947802,5
242,6,봉황대(의령),경상남도 의령군 궁류면 평촌리 산 62,#가족과함께 #가족여행 #경상권 #경치좋은곳 #관광지 #기암절벽 #단풍여행 #봉황대 #사계절 #아이와함께 #의령3경 #의령가볼만한곳 #자연 #자연관광지 #자연발생 #자연여행 #자연좋은곳 #자연환경 #주말추천여행지,50,243,35.4355654979096,128.24141444546,5
243,1,불갑저수지 수변공원,전라남도 영광군 불갑면 방마로 151,#가족여행 #걷기좋은길 #관광지 #사계절 #사찰&산사 #산책길 #산책하기 #산책하기좋은곳 #영광여행 #자연좋은곳 #전라권 #전라남도여행 #체험학습 #친환경여행,51,244,35.221497599952,126.514230920994,6
244,2,화천월지단차원 (전 불갑다향),전라남도 영광군 불갑사로 167,#가족과함께 #관광두레 #관광지 #농촌교육 #다도체험 #영광군 #전남_관광두레 #체험프로그램 #친구와함께,51,245,35.2174507013667,126.528949738366,6
245,3,백수해안도로,전라남도 영광군 백수읍 해안로 957,#2024_여행가는달과함께하는_발도장여행지 #경치좋은곳 #관광지 #드라이브여행 #드라이브코스 #드라이브코스추천 #바다경치 #백수해안도로 #연인과함께 #이른봄여행 #자연 #전라권 #추천드라이브코스 #풍경좋은곳 #해안도로 #해안드라이브 #해안드라이브코스 #해안절경 #휴식여행 #휴식하기좋은곳,51,246,35.353731926146,126.38928135481,6
246,4,법성포,전라남도 영광군 법성면 법성리,#경치좋은곳 #관광지 #바다경치 #바다내음 #법성포 #자연 #자연좋은곳 #자연환경 #전라권 #포구 #항구,51,247,35.3652682531802,126.450068335007,6
247,5,숲쟁이공원,전라남도 영광군 법성면 진내리,#걷기여행 #관광지 #영광9경 #영광공원 #영광여행 #전라남도여행 #힐링여행,51,248,35.3669070390814,126.434102157175,6
248,6,숲쟁이꽃동산,전라남도 영광군 백제문화로 67,#관광지,51,249,35.3644850486412,126.43460738044,6
249,7,백제불교최초도래지,전라남도 영광군 법성면 백제문화로 203,#가족여행 #관광지 #기차여행 #나들이 #백제불교최초도래지 #사찰&산사 #아이와함께 #역사 #자연좋은곳 #전라권 #전통&역사문화체험 #체험학습 #친구와함께 #힐링,51,250,35.3619446212377,126.431134890485,6
250,8,월봉재,전라남도 영광군 굴비로 87,#음식,51,251,35.3562831625854,126.449225330339,6
251,9,물무산 행복숲,전라남도 영광군 영광읍 물무로 219,#관광지,51,252,35.2703141685514,126.516783129023,6
252,10,영광향교,전라남도 영광군 영광읍 향교길 32,#고려시대향교 #관광지 #역사 #역사공부 #역사관광지 #역사를품은곳 #역사문화재 #역사문화재 #역사속 #역사속으로 #역사유적 #역사유적지 #역사이야기 #역사탐험 #영광고려시대문화재 #영광문화재 #영광여행 #영광여행추천 #영광향교 #전라권 #전라남도여행 #전라남도유형문화재,51,253,35.2739857208922,126.520037617586,6
253,1,영덕 안동권씨 옥천재사,경상북도 영덕군 창수면 장육사길 353,#관광지 #역사 #역사공부 #역사관광지 #역사를품은곳 #역사문화재 #역사속 #역사속으로 #역사유적 #역사유적지 #역사이야기 #역사탐방 #역사탐험 #영덕옥천재사 #영덕화수루 #조선시대누각,52,254,36.5966697597818,129.321873962174,5
254,2,괴시리 전통마을,경상북도 영덕군 영해면 호지마을1길 16-1,#가족여행 #경상권 #고택마을 #관광지 #괴시리 #민속문화재 #역사 #역사공부 #역사관광지 #역사를품은곳 #역사문화재 #역사속 #역사속으로 #역사이야기 #역사탐방 #역사탐험 #영덕관광 #전통마을 #체험학습 #한옥스테이,52,255,36.543146067981,129.41662202089,5
255,3,영해 3.1 의거탑,경상북도 영덕군 영해면 성내리,#3.1운동 #관광지 #산책길 #산책하기 #산책하기좋은곳 #아이와함께 #애국심 #애국정신 #역사 #역사를품은곳 #역사속 #역사속으로 #역사여행 #역사이야기 #역사탐방 #역사탐험 #항일운동,52,256,36.5328547343441,129.413081120793,5
256,4,장육사,경상북도 영덕군 창수면 장육사1길 172,#관광지 #불교 #불교문화 #불교사찰 #사찰여행 #역사 #자연좋은곳 #자연환경 #전통사찰 #한국불교 #휴식공간 #휴식여행 #휴식하기 #휴식하기좋은곳,52,257,36.5987754129972,129.3018618747,5
257,5,유금사(영덕),경상북도 영덕군 병곡면 유금길 208-5,#관광지 #불교 #불교문화 #사찰 #사찰여행 #역사 #연중무휴 #영덕유금사 #영덕유금사삼층석탑 #자연환경 #전통사찰 #종교 #한국불교 #휴식하기좋은곳,52,258,36.647267872452,129.368840841687,5
258,1,팔당호,경기도 광주시 남종면,#경치좋은곳 #관광지 #산책길 #산책하기 #산책하기좋은곳 #자연 #자연속으로 #자연여행 #자연좋은곳 #자연풍경 #자연환경 #친구와함께,53,259,37.494164363366,127.301699267454,1
259,2,천진암 성지,경기도 광주시 퇴촌면 천진암로 1203,#가족여행 #관광지 #교과서속여행 #나들이 #당일치기여행 #드라이브여행 #서울근교여행 #수도권 #아이와함께 #역사 #전통&역사문화체험 #천진암성지 #체험학습 #친구와함께 #힐링,53,260,37.4235731251017,127.388398918509,1
260,3,강마을다람쥐,경기도 광주시 남종면 태허정로 556,#강마을다람쥐 #경기광주맛집 #경기광주한정식 #광주강마을다람쥐 #광주맛집 #광주한식당 #도토리국수 #도토리묵 #도토리묵밥 #도토리묵밥 #도토리묵사발 #도토리요리 #도토리전병 #도토리전병 #맛집 #수도권 #연중무휴 #음식 #팔당호맛집 #한식,53,261,37.4928879793256,127.282918011709,1
261,4,박물관 얼굴,경기도 광주시 남종면 분원길 3-6,#가족여행 #경기광주가볼만한곳 #경기광주관광 #경기광주박물관 #경기광주여행 #경기광주전시회 #경기권 #경기도 광주 #관석헌 #그림체험 #문화시설 #박물관얼굴 #서울근교 #인형전시 #체험학습,53,262,37.4939574953744,127.302050905982,1
262,5,남한산성도립공원 [유네스코 세계유산],경기도 광주시 남한산성면 남한산성로 731,#가족여행 #관광지 #나들이 #남한산성도립공원 #드라이브여행 #서울근교여행 #수도권 #아이와함께 #유네스코세계문화유산 #자연 #전통&역사문화체험 #체험학습 #친구와함께 #힐링,53,263,37.4766964501253,127.188418117775,1
263,1,강동 해수온천,울산광역시 북구 동해안로 1418,#2024_여행가는달과함께하는_발도장여행지 #가족과함께 #강동해수온천 #경상권 #관광지 #연중무휴 #온천 #휴식공간 #휴식여행 #휴식하기 #휴식하기좋은곳 #휴양관광지 #힐링&여행 #힐링&휴양 #힐링&휴양여행,54,264,35.6137742611851,129.450502633309,4
264,2,강동 화암 주상절리,울산광역시 북구 산하동 952-1번지 일원,#2024_여행가는달과함께하는_발도장여행지 #강동화암주상절리 #경상권 #경치좋은곳 #관광지 #바다풍경 #울산광역시기념물 #자연 #자연좋은곳 #해안절경,54,265,35.6341568308047,129.442446993402,4
265,3,강동몽돌해변,울산광역시 북구 산하동,#강동몽돌해변 #관광지 #바다풍경 #연인과함께 #연중무휴 #자연 #자연속으로 #자연여행 #자연좋은곳 #자연풍경 #자연환경,54,266,35.6317109259186,129.429027518249,4
266,4,신명·정자해변,울산광역시 북구 동해안로 1801,#가족여행 #경상권 #고래등대 #관광지 #바다풍경 #신명해변 #여름방학가볼만한곳 #여름여행 #여름휴가 #연인과함께 #울산일출명소 #이색등대 #일출명소 #자연 #자연좋은곳 #전망좋은곳 #정자해변 #친구와함께,54,267,35.644230871651,129.440440321121,4
267,1,옥정호(물안개길),전북특별자치도 임실군 운암면,#가족여행 #걷기여행 #관광지 #사계절 #아이와함께 #연인과함께 #옥정호(물안개길) #자연 #친구와함께 #피크닉 #힐링&휴양여행,55,268,35.6606460494296,127.160440115153,6
268,2,일송정가든,전북특별자치도 임실군 운암면 강운로 1233,#닭백숙 #닭백숙 #맛집 #음식 #임실군,55,269,35.6060142423614,127.110470427271,6
269,3,섬진강댐,전북특별자치도 임실군 강진면 옥정호로 608-13,#경치여행 #경치좋은곳 #관광지 #교육여행 #댐 #물문화관 #섬진강 #섬진강댐 #아이와함께 #자연 #전라권,55,270,35.5422845,127.111934,6
270,4,구담마을,전북특별자치도 임실군 덕치면 천담1길 49,#가족체험 #관광지 #농촌 #농촌체험 #농촌체험학습 #아이와함께 #자연마을 #자연환경 #체험 #휴식공간 #휴식여행 #휴식하기 #휴식하기좋은곳 #힐링&휴양여행,55,271,35.4923644734683,127.191193588848,6
271,1,아바이마을,강원특별자치도 속초시 청호로 122-1,#가족여행 #강원권 #강원도_여행지_추천 #관광지 #문화관광해설사 #속초가볼만한곳 #속초갯배 #속초여행 #숙박 #실향민 #아바이순대국 #영화&드라마촬영지 #오징어순대 #자연 #주말추천여행지 #친구와함께,56,272,38.2006365983324,128.594868017309,2
272,2,속초등대전망대,강원특별자치도 속초시 영금정로5길 8-28,#가족과함께 #가족여행 #강원권 #경치여행 #경치좋은곳 #관광지 #바다 #바다경치 #속초가볼만한곳 #속초등대전망대 #아이와함께 #연중무휴 #자연 #전망좋은곳,56,273,38.2136814,128.599997,2
273,3,영랑호,강원특별자치도 속초시 영랑호반길 140,#강원도_여행지_추천 #관광지 #나홀로여행 #문화관광해설사 #생태관광지 #영랑호 #자연 #휴양여행 #힐링 #힐링여행,56,274,38.2142296232005,128.58078554268,2
274,4,영금정,강원특별자치도 속초시 동명항길 35,#2024_여행가는달과함께하는_발도장여행지 #강원권 #경치좋은곳 #관광지 #나들이 #바다낚시 #바다풍경 #야간관광100선 #영금정 #자연좋은곳 #전망좋은곳 #피서여행 #해돋이명소 #해상정자 #해안절경,56,275,38.2121070424096,128.597344846395,2
275,5,아바이마을 갯배,강원특별자치도 속초시 중앙부두길 51,#가족과함께 #가족여행 #가족체험 #강원권 #강원도_여행지_추천 #갯배 #관광지 #속초아바이마을 #아바이마을 #아바이마을갯배 #오징어순대 #이색체험 #체험 #힐링&휴양여행,56,276,38.2028218883287,128.592160732756,2
276,1,충주댐,충청북도 충주시 충주호수로 737,#가족여행 #걷기여행 #경치좋은곳 #관광지 #사계절 #연인과함께 #자연 #자연좋은곳 #충주댐 #충청권 #친환경여행,57,277,37.0044410097334,127.990644874993,3
277,2,충주호,충청북도 충주시 동량면 조동리,#2024_여행가는달과함께하는_발도장여행지 #INFP혼행 #가족과함께 #가족여행 #관광지 #나들이 #데이트코스 #레포츠 #아이와함께 #연인과함께 #자연 #자연좋은곳 #청풍호 #충주호 #충주호유람선 #충청권 #친구와함께 #호수 #힐링,57,278,37.0307309169371,127.985503527588,3
278,3,충주세계무술박물관,충청북도 충주시 남한강로 24,#2024_여행가는달과함께하는_발도장여행지 #가족여행 #교과서속여행 #문화시설 #미세먼지_피하는_실내여행 #미세먼지_피하는_실내여행 #박물관 #사계절 #실내관광지 #실내관광지 #실내여행지 #실내여행지 #아이와함께 #에너제틱_청춘여행 #예술 #유쾌한_액티비티가_ 있는_청춘여행 #충주세계무술박물관 #충청권,57,279,36.9878303501458,127.905571127149,3
279,4,하늘재,충청북도 충주시 수안보면 미륵송계로 614,#가족과함께 #걷기좋은곳 #관광지 #산책 #산책코스 #산책하기좋은곳 #자연 #친구와함께 #하늘재 #하늘재트레킹,57,280,36.8295425511695,128.0679559577,3
280,5,충주댐가든,충청북도 충주시 충주호수로 590,#가마솥갈비탕 #맛집 #매운탕 #매운탕 #불고기정식 #송어회 #음식 #충주시,57,281,37.0110085353994,127.978950892276,3
281,6,충주 탄금대와 탄금대공원,충청북도 충주시 탄금대안길 105,#2024_여행가는달과함께하는_발도장여행지 #가족여행 #관광지 #산책하기좋은곳 #역사 #역사관광지 #역사문화재 #자연환경 #충북 #충주 탄금대와 탄금대공원 #혼자여행 #휴식공간 #휴식여행 #휴식하기 #휴식하기좋은곳,57,282,36.9882514881239,127.898291705828,3
282,1,홍성방조제,충청남도 홍성군 서부면,#관광지 #바다풍경 #방조제 #자연 #충청권 #홍성 #홍성방조제 #홍성여행 #힐링,58,283,36.5803273092588,126.51723142167,3
283,2,남당항,충청남도 홍성군 서부면 남당리,#가족과함께 #관광지 #남당항 #대하 #대하축제 #미식여행 #바다풍경 #새조개 #새조개축제 #수산물 #자연 #죽도 #천수만 #철새도래지 #충청권 #홍성남당항,58,284,36.5398850176414,126.479723667165,3
284,3,서산A지구방조제,충청남도 홍성군 서부면 남당항로,#간월도 #관광지 #서산간척지 #서산방조제 #자연 #조류탐사 #천수만 #철새도래지,58,285,36.6033954,126.432551,3
285,4,궁리포구,충청남도 홍성군 서부면 남당항로 853-5,#관광지 #궁리포구 #바다경치 #바다내음 #일몰여행 #자연 #자연좋은곳 #자연환경 #천수만 #충청권 #포구 #홍성12경 #홍성명품낙조 #홍성포구,58,286,36.5889216217204,126.457733338553,3
286,5,속동전망대,충청남도 홍성군 서부면 남당항로 689,#갯벌 #경치좋은곳 #관광지 #데이트코스 #바다경치 #바다전망 #바다전망대 #사진찍기좋은곳 #사진촬영 #속동갯벌 #연인과함께 #자연좋은곳 #자연환경 #전망대 #커플데이트 #타이타닉포토존 #해안전망대 #홍성속동전망대,58,287,36.5770226953143,126.464592720503,3
287,1,우석헌자연사박물관,경기도 남양주시 진접읍 금강로 1095,#공룡 #교과서속여행 #남양주 #남양주시 #문화시설 #박물관 #사계절 #수도권 #실내여행지 #아이들과가기좋은곳 #아이와함께 #우석헌자연사박물관 #이색체험 #자연사박물관 #전시관 #주말나들이 #체험학습 #화석,59,288,37.6980320052266,127.160818819056,1
288,2,화도푸른물센터 피아노폭포,경기도 남양주시 화도읍 폭포로 562,#가족여행 #경치좋은곳 #관광지 #남양주 #남양주나들이 #남양주놀거리 #남양주몰놀이장 #당일치기여행 #몰놀이장 #산책하기좋은곳 #수도권 #아이와함께 #어린이물놀이장 #이색체험 #인공폭포 #자연 #자연환경 #전시관 #체험학습 #피아노폭포 #화도나들이 #화도하수처리장피아노폭포 #힐링산책,59,289,37.6316342,127.347001,1
289,3,산들소리,경기도 남양주시 불암산로59번길 48-31,#가족여행 #관광지 #데이트코스 #브런치카페 #사계절 #산들소리수목원 #서울근교여행 #수도권 #아이와함께 #연인과함께 #자연 #자연좋은곳 #힐링,59,290,37.6510750324296,127.101551671701,1
290,1,금강식물원,부산광역시 금정구 장전동 산 43-1,#관광지 #금강공원 #남녀노소 #부산금강공원 #부산식물원 #식물원 #아이와함께 #자연 #자연좋은곳 #자연환경 #휴식여행 #휴식하기좋은곳 #힐링여행,60,291,35.2264314041591,129.077093495653,4
291,2,범어사(부산),부산광역시 금정구 범어사로 250,#가족여행 #관광지 #금정산범어사 #범어사 #부산범어사 #사찰&산사 #아이와함께 #역사 #역사유적지 #자연좋은곳 #전통&역사문화체험 #조계종제14교구 #친구와함께 #템플스테이 #휴식공간 #휴식여행 #휴식하기 #휴식하기좋은곳,60,292,35.2830426366443,129.067620787638,4
292,3,동래별장,부산광역시 동래구 금강로123번길 12,#가족식사_추천 #궁중요리 #궁중한식당 #동래별장 #맛집 #음식 #전통궁중한정식 #한정식,60,293,35.2208399980125,129.079262893829,4
293,4,동래온천 노천족탕,부산광역시 동래구 금강공원로26번길 21,#가족여행 #경상권 #관광지 #남녀노소 #동래노천족탕 #동래온천 #동래온천노천족탕 #동래온천지구 #부산가볼만한곳 #부산온천 #이색체험 #휴식공간 #휴식여행 #휴식하기 #휴식하기좋은곳 #힐링&휴양 #힐링&휴양여행,60,294,35.2200018527711,129.081432179083,4
294,5,금정산 (부산 국가지질공원),부산광역시 금정구 금성동,#경북_동해안_국가지질공원 #경치좋은곳 #관광지 #국가지질공원 #금정산국가지질공원 #부산지오파크 #부산지질공원 #자연 #자연관광지 #자연발생 #자연속으로 #자연여행 #자연좋은곳 #자연환경 #지질공원 #지질명소,60,295,35.2503324603387,129.056142876022,4
295,1,진도 남도진성,전라남도 진도군 임회면 남동리,#관광지 #역사 #역사공부 #역사관광지 #역사를품은곳 #역사문화재 #역사속 #역사속으로 #역사여행 #역사유적 #역사유적지 #역사이야기 #역사탐방 #역사탐험 #진도남도석성 #진도여행,61,296,34.3730964442317,126.169516009209,6
296,2,가계해수욕장,전라남도 진도군 고군면 신비의바닷길 47,#가계해변 #가족여행 #관광지 #바다풍경 #아이와함께 #여름방학가볼만한곳 #여름여행 #여름휴가 #연인과함께 #자연 #친구와함께 #피서여행,61,297,34.4354792988014,126.354706273774,6
297,3,진도 신비의 바닷길,전라남도 진도군 고군면 신비의바닷길 148,#2024_여행가는달과함께하는_발도장여행지 #가족여행 #관광지 #모세의기적 #신비의바닷길 #아이와함께 #이색체험 #자연 #진도신비의바닷길 #친구와함께,61,298,34.4272243458804,126.351358339902,6
298,4,죽림어촌체험마을,전라남도 진도군 헌복동길 16 죽림어촌마을특산품판매장,#관광지 #어촌체험 #이색체험 #자연마을 #자연여행 #자연좋은곳 #자연풍경 #자연환경 #전라권 #죽림어촌체험마을 #체험 #체험프로그램 #휴식공간 #휴식여행 #휴식하기 #휴식하기좋은곳,61,299,34.3913717785697,126.259938309669,6
299,5,정충사 (배중손 사당),전라남도 진도군 임회면 진도대로 4212,#고려항몽 #관광지 #배중손 #배중손사당 #배중손장군 #역사 #역사관광지 #역사를품은곳 #역사문화재 #역사속 #역사속으로 #역사여행 #역사유적 #역사유적지 #역사이야기 #역사탐방 #역사탐험 #용장산성 #용장성 #용장성홍보관 #진도용장성,61,300,34.3694267791881,126.199774213429,6
300,6,접도,전라남도 진도군 의신면 황모길 81,#관광지 #남망산 #남망산숲길 #자연 #진도남망산 #진도섬여행 #진도접도,61,301,34.3880276464077,126.300574709577,6
301,1,죽도산,경상북도 영덕군 강구면 강구대게길 47-1,#대게코스요리 #대게탕 #대게회 #맛집 #생선매운탕담백한_맛 #연중무휴 #영덕대게 #영덕맛집 #음식 #죽도산,62,302,36.3590738875393,129.385135633312,5
302,2,강구항,경상북도 영덕군 강구면 강구리 253-51,#강구대게거리 #강구항 #경상권 #관광지 #대게거리 #드라마촬영지 #영덕대게 #자연 #항구,62,303,36.3587601610828,129.391281313436,5
303,3,영덕해맞이공원,경상북도 영덕군 영덕읍 영덕대게로 968,#2024_여행가는달과함께하는_발도장여행지 #경상권 #경치좋은곳 #관광지 #데이트코스 #바다풍경 #연인과함께 #연중무휴 #영덕블루로드 #영덕해맞이공원 #자연속으로 #자연좋은곳 #자연풍경 #자연환경 #전망좋은곳 #창포말등대 #해맞이공원 #해맞이여행,62,304,36.4221012996321,129.433050463442,5
304,4,영덕 대소산 봉수대,경상북도 영덕군 축산면 도곡리 산 20,#경상권 #경상북도기념물 #관광지 #봉수대 #역사 #역사여행 #영덕관광 #영덕여행 #일출명소 #조선시대,62,305,36.5179864579421,129.431863715895,5
305,1,청풍문화재단지,충청북도 제천시 청풍면 청풍호로 2048,#2024_여행가는달과함께하는_발도장여행지 #관광지 #역사 #역사공부 #역사관광지 #역사를품은곳 #역사문화재 #역사속 #역사속으로 #역사유적지 #역사이야기 #역사탐방 #역사탐험 #청풍문화재단지 #충청권,63,306,37.0040483199984,128.173382821203,3
306,2,제천 의림지와 제림,충청북도 제천시 의림지로 33,#2024_여행가는달과함께하는_발도장여행지 #21_22한국관광100선 #가족여행 #관광지 #생태관광지 #의림지 #자연 #자연좋은곳 #제천가볼만한곳 #제천의림지 #제천의림지와제림 #충청권 #휴양여행 #힐링 #힐링여행,63,307,37.1741242829469,128.208048667724,3
307,3,금월봉,충청북도 제천시 금성면 월굴리,#관광지 #금월봉 #기암괴석 #드라마촬영지 #등산 #산 #영화촬영지 #제천 #제천금월봉 #충청권 #트레킹,63,308,37.0466157272653,128.164352140906,3
308,4,수몰역사관,충청북도 제천시 청풍면 청풍호로 2048,#가족여행 #문화시설 #수몰역사관 #아이와함께 #역사속 #역사속으로 #역사이야기 #역사탐험 #체험학습 #충청권,63,309,37.0040483199984,128.173382821203,3
309,1,천곡황금박쥐동굴,강원특별자치도 동해시 동굴로 50,#가족여행 #강원웰니스관광지 #걷기여행 #관광지 #동해웰니스관광 #미세먼지탈출_이색동굴여행 #아이와함께 #여름방학가볼만한곳 #여름피서지 #연인과함께 #웰니스관광 #자연 #자연좋은곳 #천곡동굴 #천곡천연동굴 #천곡황금박쥐동굴 #체험학습 #친구와함께 #피서여행,64,310,37.5175192036532,129.110476341539,2
310,2,해가사의 터,강원특별자치도 삼척시 수로부인길 401,#강원권 #강원도관광지 #관광지 #바다산책 #바다전망 #바다풍경 #바다향기로 #산책하기 #삼척해수욕장 #역사 #역사속으로 #역사이야기 #역사탐험 #연인과함께 #연중무휴 #일출,64,311,37.4733828082223,129.162827807179,2
311,3,부흥횟집,강원특별자치도 동해시 일출로 93,#강원맛집 #대구_매운탕·맑은탕 #맛집 #모둠회 #물회 #복_매운탕·맑은탕 #부흥횟집 #음식 #회덮밥 #횟집,64,312,37.5521039301128,129.117976095594,2
312,4,동해 해암정,강원특별자치도 동해시 촛대바위길 19,#가족여행 #강원권 #강원도유형문화재 #관광지 #북평해암정 #역사 #역사공부 #역사관광 #역사관광지 #역사를품은곳 #역사문화재 #역사속 #역사속으로 #역사속으로 #역사여행 #역사유적 #역사이야기 #역사탐험,64,313,37.4790584,129.159095,2
313,5,추암 촛대바위,강원특별자치도 동해시 추암동,#2024_여행가는달과함께하는_발도장여행지 #강원권 #강원도_여행지_추천 #관광지 #명소 #산불피해지역 #자연 #추암촛대바위 #풍경,64,314,37.4706409837437,129.149990688796,2
314,1,안성 미리내마을,경기도 안성시 양성면 미산1길 2,#가족과함께 #경기권 #관광지 #농촌마을 #농촌여행 #서울근교여행 #안성미리내마을 #전통체험마을 #체험 #팜스테이 #휴식공간 #휴식여행 #휴식하기 #휴식하기좋은곳,65,315,37.1385847968429,127.258620744764,1
315,2,쌍미륵사와 기솔리석불입상,경기도 안성시 삼죽면 텃골길 105,#경기권 #경기도유형문화재 #관광지 #기솔리석불입상 #사찰여행 #서울근교여행 #쌍미륵사 #안성가볼만한곳 #안성명소 #안성쌍미륵사 #역사 #역사공부 #역사관광지 #역사문화재 #역사속 #역사속으로 #역사여행 #역사유적 #역사유적지 #역사이야기 #역사탐방 #역사탐험,65,316,37.0676395767758,127.343420671027,1
316,3,안성허브마을,경기도 안성시 삼죽면 국사봉로 641-14,#가족여행 #가족체험여행 #관광지 #기념품판매 #사계절 #산업관광 #산업관광지 #수도권 #아이와함께 #안성허브마을 #자연좋은곳 #체험 #추억여행 #친구와함께 #특산물 #허브 #허브마을 #힐링 #힐링공간,65,317,37.0650487361482,127.358078600018,1
317,1,설봉공원,경기도 이천시 경충대로2709번길 128,#가족과함께 #가족여행 #걷기길 #걷기여행 #관광지 #데이트코스 #드라마촬영지 #문화관광해설사 #사계절 #산책 #산책코스 #서울근교여행 #설봉공원 #수도권 #연인과함께 #이천가볼만한곳 #이천설봉공원 #이천여행 #자연좋은곳 #전시관 #추억여행 #피크닉 #힐링,66,318,37.2796682396016,127.427867877488,1
318,2,이천 산수유마을,경기도 이천시 백사면 원적로775번길 17,#경기권 #관광지 #농촌마을 #농촌여행 #농촌체험 #농촌체험마을 #농촌체험여행 #데이트코스 #명소 #산수유나무 #산수유마을 #서울근교여행 #아이와함께 #연인과함께 #이천 #이천가볼만한곳 #이천산수유마을 #체험 #체험마을,66,319,37.3407759410976,127.462295543478,1
319,3,이천시립월전미술관,경기도 이천시 경충대로2709번길 185,#나들이 #데이트코스 #문화시설 #미술관 #박물관 #수도권 #실내여행지 #아이와함께 #연인과함께 #예술 #이천가볼만한곳 #이천설봉공원 #이천시립월전미술관 #전시관 #체험학습 #친구와함께 #힐링,66,320,37.2801665635928,127.424047151946,1
320,4,도예공방 들꽃마을,경기도 이천시 신둔면 도자예술로5번길 95,#가족과함께 #경기권 #공예체험 #공예품 #관광지 #도예공방 #도예공방들꽃마을 #도자기 #도자기공방 #도자기체험 #들꽃마을 #서울근교여행 #아이와함께 #전통공예 #체험 #체험프로그램 #한국도자기,66,321,37.2935263525866,127.386245731283,1
321,1,땅끝관광지,전라남도 해남군 송지면 땅끝마을길 60-28,#가족과함께 #가족여행 #가족체험 #가족휴양 #경치좋은곳 #관광지 #땅끝 #땅끝관광지 #땅끝모노레일 #땅끝탑 #바다풍경 #아이와함께 #연인과함께 #자연좋은곳 #자연환경 #전라권 #친구와함께,67,322,34.296805235078,126.527695800084,6
322,2,고산 윤선도 유적지,전라남도 해남군 해남읍 녹우당길 135,#가족여행 #관광지 #교과서속여행 #역사 #역사공부 #역사관광지 #역사를품은곳 #역사문화재 #역사속 #역사속으로 #역사유적 #역사유적지 #역사이야기 #역사탐방 #역사탐험 #전라권,67,323,34.5510166786727,126.621924736877,6
323,3,우항리 공룡화석 자연사유적지,전라남도 해남군 황산면 공룡박물관길 234,#가족과함께 #공룡화석 #관광지 #교육여행 #아이가_좋아하는_여행 #아이와함께 #역사속으로 #역사이야기 #우항리공룡화석유적지 #우항리자연사유적지 #자연 #전남우항리공룡화석유적지 #해남공룡화석유적지 #해남공룡화석자연사유적지,67,324,34.5890886656765,126.44283212925,6
324,4,대흥사 [유네스코 세계유산],전라남도 해남군 삼산면 대흥사길 400,#가족여행 #관광지 #교과서속여행 #대흥사 #불교 #불교문화 #불교사찰 #사찰 #사찰여행 #산사 #세계문화유산 #아이와함께 #역사 #역사유적지 #유네스코세계문화유산 #자연좋은곳 #전통역사문화체험 #천년고찰 #친구와함께 #템플스테이 #한국불교 #해남대흥사 #해남명소 #해남여행,67,325,34.4771463089206,126.616627540836,6
325,1,화진포 (강원평화지역 국가지질공원),강원특별자치도 고성군 거진읍 현내면,#가을동화촬영지 #가족여행 #강원권 #관광지 #기차여행 #나들이 #당일치기여행 #데이트코스 #바다풍경 #서울근교여행 #아이와함께 #여름방학가볼만한곳 #여름여행 #연인과함께 #자연 #자연좋은곳 #체험학습 #친구와함께 #화진포해변 #힐링,68,326,38.4822126,128.436079,2
326,2,"죽정분교(구,죽정초등학교)",강원특별자치도 고성군 현내면 모정2길 2,#강원권 #관광지 #레트로여행 #몽당분교 #오토캠핑 #오토캠핑장 #죽정초등학교 #체험 #추억여행 #캠핑장 #폐교 #행복한추억 #휴식공간 #휴식여행 #휴식하기 #휴식하기좋은곳,68,327,38.4703697781014,128.419735610465,2
327,3,고성 왕곡마을,강원특별자치도 고성군 왕곡마을길 41,#가족여행 #강원도_여행지_추천 #고성왕곡마을 #관광지 #기차여행 #나들이 #데이트코스 #마을축제 #서울근교여행 #아이와함께 #역사 #연인과함께 #이색체험 #자연좋은곳 #전통가옥 #체험학습 #친구와함께 #한옥,68,328,38.3406178951909,128.499306564353,2
328,4,대진항,강원특별자치도 고성군 현내면 대진항길,#가족과함께 #강원권 #경치여행 #경치좋은곳 #관광지 #대진항 #바다 #바다경치 #연인과함께 #자연 #자연좋은곳 #자연환경 #풍경 #휴식여행,68,329,38.4988533,128.42623,2
329,5,고성 왕곡마을,강원특별자치도 고성군 왕곡마을길 41,#가족여행 #강원도_여행지_추천 #고성왕곡마을 #관광지 #기차여행 #나들이 #데이트코스 #마을축제 #서울근교여행 #아이와함께 #역사 #연인과함께 #이색체험 #자연좋은곳 #전통가옥 #체험학습 #친구와함께 #한옥,68,330,38.3406178951909,128.499306564353,2
330,6,화진포 (강원평화지역 국가지질공원),강원특별자치도 고성군 거진읍 현내면,#가을동화촬영지 #가족여행 #강원권 #관광지 #기차여행 #나들이 #당일치기여행 #데이트코스 #바다풍경 #서울근교여행 #아이와함께 #여름방학가볼만한곳 #여름여행 #연인과함께 #자연 #자연좋은곳 #체험학습 #친구와함께 #화진포해변 #힐링,68,331,38.4822126,128.436079,2
331,1,천학정/문암포구,강원특별자치도 고성군 천학정길 10,#TV속촬영지 #강원권 #고성가볼만한곳 #관광지 #동해기암괴석 #동해바다 #동해안 #동해안정자 #동해일출명소 #문암포구 #바다 #역사 #역사공부 #역사를품은곳 #역사문화재 #역사속 #역사속으로 #역사여행 #역사유적 #역사유적지 #역사이야기 #역사탐방 #역사탐험 #일출일몰명소 #자연 #천학정 #풍경,69,332,38.2888947856028,128.548002172586,2
332,2,오대산 선재길,강원특별자치도 평창군 진부면 오대산로 374-8,#2024_여행가는달과함께하는_발도장여행지 #강원권 #걷기여행 #레포츠 #산림욕 #오대산선재길 #자연,69,333,37.731678119228,128.593136604201,2
333,3,송지호 해안 서낭바위 (강원평화지역 국가지질공원),강원특별자치도 고성군 죽왕면,#강원국가지질공원 #강원권 #관광지 #국가지질공원 #송지호 #송지호해안 #자연 #자연관광지 #자연속으로 #자연여행 #자연좋은곳 #자연풍경 #자연환경 #지질공원 #지질명소 #지질유산 #풍경 #한탄강_국가지질공원,69,334,38.3287596789224,128.525205848883,2
334,1,지경리해변,강원특별자치도 양양군 현남면 동해대로 62,#가족여행 #강원권 #강원권반려동물여행지 #관광지 #기차여행 #나들이 #당일치기여행 #데이트코스 #바다풍경 #반려동물동반여행지 #서울근교여행 #아이와함께 #여름방학가볼만한곳 #여름여행 #연인과함께 #자연 #자연좋은곳 #지경리해변 #체험학습 #친구와함께 #힐링,70,335,37.9204654786446,128.803323605226,2
335,2,입암메밀타운,강원특별자치도 양양군 현남면 화상천로 155,#막국수 #맛집 #메밀막국수 #물막국수 #비빔막국수 #수육 #양양군 #양양군메밀맛집 #양양막국수맛집 #양양수육맛집 #음식,70,336,37.9246289669757,128.777144356072,2
336,3,휴휴암(강원),강원특별자치도 양양군 현남면 광진2길 3-16,#2024_여행가는달과함께하는_발도장여행지 #가족과함께 #관광지 #불교 #불교문화 #사찰 #사찰여행 #양양여행 #역사 #자연좋은곳 #자연풍경 #자연환경 #전통사찰 #종교 #친구와함께 #한국불교 #휴식공간 #휴식여행 #휴식하기 #휴식하기좋은곳 #휴휴암,70,337,37.9610517200998,128.767348227597,2
337,4,죽도정&죽도 전망대,강원특별자치도 양양군 현남면 인구리 1-1,#관광지 #자연 #죽도 #죽도전망대 #죽도정,70,338,37.9716171011767,128.763219294053,2
338,5,남애어촌체험마을,강원특별자치도 양양군 현남면 매바위길 127,#고래사냥촬영지 #관광지 #아이와함께 #양양배낚시 #어촌마을 #어촌체험마을 #영화촬영지 #이색체험 #자연마을 #자연속으로 #자연여행 #자연좋은곳 #자연환경 #체험 #체험프로그램 #휴식공간 #휴식여행 #휴식하기 #휴식하기좋은곳,70,339,37.9445238673872,128.786136097642,2
339,6,"남애해변(남애1, 3리)",강원도 양양군 현남면 광진리,#강원권 #경치좋은곳 #관광지 #남애해변 #바다풍경 #여름피서지 #연인과함께 #자연 #자연좋은곳 #친구와함께 #힐링여행,70,340,37.9584630043179,128.763200941762,2
340,7,하조대 무인등대,강원특별자치도 양양군 현북면 조준길 99,#경치여행 #관광지 #바다경치 #바다내음 #사진찍기 #사진찍기좋은곳 #사진촬영 #양양가볼만한곳 #양양등대 #양양여행 #일출일몰명소 #자연 #자연좋은곳 #자연풍경,70,341,38.0210985753205,128.734896787574,2
341,1,독일마을,경상남도 남해군 독일로 89-7,##19_20한국관광100선 #19_20한국관광100선 #2024_여행가는달과함께하는_발도장여행지 #21_22한국관광100선 #경상권 #관광지 #교과서속여행 #기차여행 #나들이 #데이트코스 #독일마을 #사진찍기좋은곳 #아이와함께 #연인과함께 #이색체험 #체험학습 #친구와함께 #한국관광100선 #힐링,71,342,34.8000723245094,128.038548474215,5
342,2,남해 금산 봉수대,경상남도 남해군 상주면 보리암로 691,#경상권 #경상남도기념물 #관광지 #금산봉수대 #역사 #역사공부 #역사관광지 #역사를품은곳 #역사문화재 #역사속 #역사속으로 #역사여행 #역사유적 #역사유적지 #역사이야기 #역사탐방 #역사탐험,71,343,34.7515830721386,127.980677714889,5
343,3,금산 보리암(남해),경상남도 남해군 상주면 보리암로 665,#2023_설날_소원 #2024_여행가는달과함께하는_발도장여행지 #가족여행 #관광지 #금산보리암 #불교 #불교문화 #사찰 #사찰&산사 #사찰여행 #아이와함께 #역사 #역사유적지 #자연좋은곳 #전망좋은곳 #전통&역사문화체험 #전통사찰 #종교 #친구와함께 #한국불교,71,344,34.7538486517807,127.982994555829,5
344,4,해사랑전복마을,경상남도 남해군 미조면 미송로 193,#남녀노소 #남해맛집 #맛집 #보양식 #음식 #전복구이 #전복죽 #전복죽맛집 #전복죽전망_좋은 #전복회 #활전복죽,71,345,34.7075078373772,128.036893732708,5
345,5,원예예술촌,경상남도 남해군 삼동면 예술길 39,#INFP상상여행 #걷기길 #경상권 #관광지 #꽃여행 #데이트코스 #산책 #산책코스 #아무것도_하지않을_자유_비움여행 #연인과함께 #원예예술촌 #자연 #정원 #휴양여행 #힐링,71,346,34.803789173474,128.036222699537,5
346,6,창선교와 원시어업 죽방렴,경상남도 남해군 삼동면 지족리,#가족과함께 #건축물 #경치좋은곳 #관광지 #남해바다 #다리 #바다내음 #어업 #역사이야기 #원시어업 #죽방렴 #지족해협 #창선교 #해협,71,347,34.8220852719229,127.998756688791,5
347,7,상주은모래비치,경상남도 남해군 상주면 상주로 17,#가족여행 #관광지 #남해여행 #남해해수욕장 #바다풍경 #상주은모래비치 #아이와함께 #여름방학가볼만한곳 #여름여행 #여름휴가 #연인과함께 #은모래 #은모래비치 #자연 #친구와함께 #피서여행 #한려해상국립공원 #해수욕장,71,348,34.7216222818227,127.988434607732,5
348,1,모래시계공원,강원특별자치도 강릉시 강동면 헌화로 990-1,#가족여행 #강원권 #걷기길 #관광지 #모래시계공원 #산책길 #산책하기 #산책하기좋은곳 #아이와함께 #연중무휴 #휴식공간 #휴식여행 #휴식하기 #휴식하기좋은곳,72,349,37.686941889953,129.037595775542,2
349,2,등명낙가사(강릉),강원특별자치도 강릉시 강동면 괘방산길 16,#관광지 #불교 #불교사찰 #사찰 #사찰여행 #역사 #역사공부 #역사관광지 #역사문화재 #역사속 #역사속으로 #역사유적지 #역사이야기 #역사탐험 #한국불교,72,350,37.7116741682665,129.006831712005,2
350,3,썬크루즈 테마공원,강원특별자치도 강릉시 강동면 헌화로 950-39,#가족여행 #강원권 #경치좋은곳 #관광지 #바다경치 #바다뷰공원 #바다풍경 #비치크루즈 #썬크루즈리조트 #썬크루즈테마공원 #이색체험 #전망좋은곳 #정동진조각공원 #정동진해돋이공원 #휴식공간 #휴식여행 #휴식하기 #휴식하기좋은곳,72,351,37.6840618733503,129.041904515543,2
351,4,강릉 통일공원,강원특별자치도 강릉시 율곡로 1715-38 통일안보전시관,#강릉가볼만한곳 #강릉통일공원 #강원권 #관광지 #바다풍경 #아이와함께 #안보여행 #역사공부 #역사유적지 #역사탐방 #전시관 #체험학습 #통일공원,72,352,37.7219966159542,128.999057130064,2
352,5,하슬라아트월드,강원특별자치도 강릉시 강동면 율곡로 1441,#2024_여행가는달과함께하는_발도장여행지 #가족과함께 #강릉여행 #강원권 #강원권반려동물여행지 #관광지 #데이트코스 #미술관 #반려동물동반여행지 #복합문화공간 #산책길 #산책하기좋은곳 #연인과함께 #열린문화공간 #예술창작 #이색체험 #전망대 #전시관 #정동진 #종합예술 #친구와함께 #하슬라아트월드,72,353,37.7054583826871,129.007843904557,2
353,6,정동진해변,강원특별자치도 강릉시 강동면 정동역길 17,#강원_가볼만한곳 #강원권 #강원도_여행지_추천 #관광지 #바다내음 #바다풍경 #바다풍경여행 #여름여행 #여름휴가 #연인과함께 #연중무휴 #자연 #정동진가볼만한곳 #정동진역 #정동진해변 #힐링여행,72,354,37.6913398885234,129.03282949125,2
354,1,단양 향산리 삼층석탑,충청북도 단양군 향산1길 24 향산리삼층석탑,#가족여행 #관광지 #단양향산리삼층석탑 #보물 #역사 #역사공부 #역사관광 #역사관광지 #역사관광지 #역사를품은곳 #역사문화 #역사문화재 #역사속 #역사속으로 #역사여행 #역사이야기 #역사탐험 #역사투어 #충청권,73,355,37.0542579196826,128.417729757478,3
355,2,온달관광지,충청북도 단양군 영춘면 온달로 23,#2024_여행가는달과함께하는_발도장여행지 #가족과함께 #관광지 #남녀노소 #단양가볼만한곳 #단양드라마촬영장 #단양온달관광지 #드라마촬영장 #바보온달 #사진찍기좋은곳 #아이와함께 #역사속으로 #역사탐험 #온달관광지 #온달동굴 #온달드라마세트장 #온달산성 #온달평강사랑이야기 #이색체험 #평강공주,73,356,37.0629552611025,128.492923305038,3
356,3,구인사(단양),충청북도 단양군 영춘면 구인사길 73,#2024_여행가는달과함께하는_발도장여행지 #관광지 #구인사(단양) #구인사대법당 #구인사법어비 #나홀로여행 #단양구인사 #단양단풍구경 #단양사찰 #불교 #불교문화 #불교사찰 #사찰 #사찰여행 #산사 #소백산 #숙박대전_가볼만한곳 #숙박대전_추천기사 #역사 #연중무휴 #자연좋은곳 #천태종총본산 #충청권 #콘크리트사찰 #한국불교 #휴식공간 #휴식여행 #휴식하기 #휴식하기좋은곳 #힐링,73,357,37.0318294335311,128.480804968056,3
357,4,단양 조덕수고택,충청북도 단양군 가곡면 덕천1길 19,#가옥 #관광지 #교과서속여행 #단양조자형가옥 #문화재 #역사 #역사공부 #역사관광지 #역사를품은곳 #역사문화재 #역사속 #역사속으로 #역사유적 #역사유적지 #역사이야기 #역사탐방 #역사탐험 #조자형가옥 #충청권,73,358,37.0034281929686,128.38377649201,3
358,1,삼포해변,강원특별자치도 고성군 죽왕면 삼포해변길 15-4,#가족과함께 #관광지 #남녀노소 #바다경치 #바다풍경 #삼포해변 #여름피서지 #여름휴가 #연인과함께 #자연 #휴식여행 #휴식하기좋은곳 #힐링여행,74,359,38.3171553089829,128.532427546558,2
359,2,송지호관망타워,강원특별자치도 고성군 죽왕면 동해대로 6021,#가족여행 #강원권 #강원도_여행지_추천 #경치좋은곳 #관광지 #관망타워 #바다경치 #생태관광 #송지호 #송지호관광타워 #아이와함께 #자연 #전망대 #철새 #체험학습,74,360,38.3362336939275,128.517600746897,2
360,3,고성 문암리 유적,강원특별자치도 고성군 죽왕면 문암진리,#강원권 #고성역사유적지 #관광지 #신석기유적지 #역사 #역사공부 #역사관광지 #역사를품은곳 #역사문화재 #역사속 #역사속으로 #역사여행 #역사유적지 #역사이야기 #역사체험 #역사탐방 #역사탐험,74,361,38.3037494862172,128.544220899007,2
361,4,가진항,강원특별자치도 고성군 죽왕면 가진해변길 121-12,#가족과함께 #가진항 #가진해변 #강원권 #강원도_여행지_추천 #고성바다 #관광지 #바다 #바다경치 #바다내음 #어촌마을 #자연 #자연좋은곳 #자연환경 #풍경 #휴식여행 #힐링 #힐링영행,74,362,38.3676793478759,128.511122377381,2
362,1,부산광안대교,부산광역시 해운대구 수영강변대로 203,#경상권 #경치좋은곳 #관광지 #광안대교 #데이트장소 #데이트코스 #부산가볼만한곳 #부산광안대교 #부산불꽃축제명소 #부산야경 #부산야경명소 #야간관광100선 #야경 #야경여행 #야경여행지 #야경좋은곳 #커플데이트,75,363,35.1771634235837,129.120555167566,4
363,2,해운대해수욕장,부산광역시 해운대구 해운대해변로 264,#15_16한국관광100선 #19_20한국관광100선 #2024_여행가는달과함께하는_발도장여행지 #21_22한국관광100선 #23_24한국관광100선 #가족여행 #경상권 #경상권 #관광지 #바다풍경 #부산 #부산가볼만한곳 #아이와함께 #여름방학가볼만한곳 #여름여행 #여름휴가 #연인과함께 #자연 #친구와함께 #피서여행 #한국관광100선 #해운대해수욕장 #해운대해수욕장,75,364,35.1591069824231,129.160283786856,4
364,3,부산광역시 금련산청소년수련원,부산광역시 수영구 황령산로 156,#레포츠 #부산광역시금련산청소년수련원 #부산수영구 #청소년수련원,75,365,35.1552420981563,129.102909671,4
365,4,해월정,부산광역시 해운대구 중동,#경상권 #관광지 #대한팔경 #산책코스 #산책하기좋은곳 #역사공부 #역사관광지 #역사를품은곳 #역사문화재 #역사속 #역사속으로 #역사여행 #역사유적 #역사유적지 #역사이야기 #역사탐방 #역사탐험 #연중무휴 #일출일몰명소 #해월정 #휴식공간 #휴식하기좋은곳,75,366,35.1589578525344,129.1782523858,4
366,1,모곡밤벌유원지,강원특별자치도 홍천군 서면 모곡리,#가족과함께 #강원권 #관광지 #노지캠핑 #밤벌유원지 #아이와함께 #유원지 #자연관광지 #자연여행 #자연환경 #차박명소 #캠핑명소 #피서 #홍천노지캠핑 #홍천유원지 #홍천차박 #휴식공간 #휴식여행 #휴식하기 #휴식하기좋은곳,76,367,37.6896217096714,127.589589215224,2
367,2,호명호수공원,경기도 가평군 청평면 상천리 산371-2,#가족과함께 #가평가볼만한곳 #가평당일치기여행 #가평둘러보기좋은곳 #가평호명호수 #걷기길 #경치좋은곳 #관광지 #나들이 #문화관광해설사 #벚꽃명소 #산책길 #산책하기 #산책하기좋은곳 #수도권 #아이와함께 #연인과함께 #자연마을 #자연좋은곳 #자연풍경 #자연환경 #전망좋은곳 #친구와함께 #호명갤러리 #호명호수 #호명호수공원,76,368,37.7772992,127.454241,1
368,3,청평호반,경기도 가평군 설악면 유명로 1906-15,#가족과함께 #가평가볼만한곳 #관광지 #드라이브하기좋은곳 #수도권 #수도권근교 #숨겨진명소 #아름다운경관 #인공호수 #자연 #청평댐 #청평호 #청평호반 #청평호수길 #휴양여행,76,369,37.6812549678995,127.471556579155,1
369,4,국립 유명산자연휴양림,경기도 가평군 설악면 유명산길 79-53,#가족야영장 #가족여행 #걷기길 #관광지 #국립유명산자연휴양림 #드라이브 #드라이브코스 #등산 #등산로 #무장애 #무장애휴양지 #서울근교여행 #수도권 #여름방학가볼만한곳 #유명산 #자연 #자연&숲 #자연휴양림 #전망좋은곳 #치유 #친구와함께 #통나무집,76,370,37.5929398560249,127.491057285213,1
370,5,어비계곡,경기도 가평군 설악면 어비산길99번길 9-10,#가족과함께 #가평당일치기물놀이 #겨울빙벽 #계곡 #관광지 #그늘막가져가면더좋은계곡 #물놀이 #수도권 #아이와함께 #얕은수심의계곡 #어비계곡 #여름물놀이 #여름휴가 #자연 #친구와함께 #피서,76,371,37.5989509301215,127.503484586566,1
371,1,구름포해수욕장,충청남도 태안군 소원면 의항리,#가족여행 #관광지 #구름포해수욕장 #바다낚시 #바다풍경 #아이와함께 #여름피서지 #자연 #자연좋은곳 #충청권,77,372,36.8176032047506,126.15866837945,3
372,2,백화산(태안),충청남도 태안군 태안읍 동문리 41-2 일대,#경치여행 #경치좋은곳 #관광지 #등산 #등산여행 #백화산 #백화산구름다리 #백화산등반 #백화산산수길 #백화산태을암 #자연 #자연관광지 #자연속으로 #자연여행 #자연좋은곳 #자연풍경 #자연환경 #태안백화산 #태안여행지추천,77,373,36.7499406005419,126.308125275722,3
373,3,학암포 오토캠핑장,충청남도 태안군 원북면 옥파로 1152-37,#레포츠 #바다 #인기캠핑장2024 #자연과함께 #태안일몰 #태안자동차야영장 #태안학암포오토캠핑장 #태안학암포카라반 #해안국립공원 #휴가 #힐링,77,374,36.8979948831707,126.207264666745,3
374,4,태안 신두리 해안사구,충청남도 태안군 원북면 신두리,#2024_여행가는달과함께하는_발도장여행지 #21_22한국관광100선 #가족과함께 #가족여행 #걷기길 #관광지 #바다 #아이와함께 #연인과함께 #자연 #자연 #자연관광지 #자연발생 #자연좋은곳 #자연풍경 #자연환경 #천연기념물 #충청권 #태안신두리해안사구 #한국관광100선 #힐링,77,375,36.8333523774118,126.20719104304,3
375,5,천리포수목원,충청남도 태안군 소원면 천리포1길 187,#2024_여행가는달과함께하는_발도장여행지 #가족과함께 #가족여행 #관광지 #수목원 #아이와함께 #자연 #자연여행 #자연좋은곳 #천리포수목원 #태안가볼만한곳 #힐링,77,376,36.7986952097852,126.150541212489,3
376,1,선암사계곡,전라남도 순천시 승주읍 죽학리,#관광지 #순천계곡 #순천선암사석교 #순천선암사승선교 #순천여행 #순천여행가볼만한곳 #순천여행추천 #순천여행코스 #아이와함께 #여름여행 #여름피서지 #여름휴양 #자연 #자연속으로 #자연여행 #자연좋은곳 #자연풍경 #자연환경 #전라남도여행 #전라남도여행지추천 #조계산도립공원,78,377,34.9953421715788,127.340773334443,6
377,2,순천전통야생차체험관,전라남도 순천시 승주읍 선암사길 450-1,#가족과함께 #가족여행 #관광지 #다도체험 #순천야생차 #순천여행 #순천여행가볼만한곳 #순천여행추천 #순천웰빙공간 #순천전통야생차체험관 #순천체험공간 #순천한옥체험 #아이와함께 #이색체험 #자연좋은곳 #자연환경 #전라권 #전라남도여행 #체험 #체험프로그램 #휴식공간 #휴식여행 #휴식하기 #휴식하기좋은곳,78,378,34.9948984835674,127.334070644838,6
378,3,송광사(순천),전라남도 순천시 송광면 송광사안길 100,#가족여행 #관광지 #교과서속여행 #불교 #불교문화 #불교사찰 #사찰 #사찰여행 #산사 #송광사 #아이와함께 #역사 #역사유적지 #전통사찰 #전통역사문화체험 #종교 #친구와함께 #템플스테이 #한국불교 #휴식공간 #휴식여행 #휴식하기 #휴식하기좋은곳 #힐링 #힐링&휴양,78,379,35.0023635450929,127.274870647975,6
379,4,정혜사(순천),전라남도 순천시 서면 정혜사길 32,#계족산사찰 #고사절 #관광지 #불교 #불교문화 #사찰 #사찰여행 #순천계족산 #순천에서오래된절 #순천여행 #순천의사찰 #순천정혜사 #순천화엄사말사 #역사 #자연속으로 #자연환경 #전라권 #전라남도여행 #전통사찰 #정혜사 #종교 #템플스테이 #한국불교 #휴식공간 #휴식여행 #휴식하기 #휴식하기좋은곳,78,380,35.0618334637756,127.513925456688,6
380,5,선암사 [유네스코 세계유산],전라남도 순천시 승주읍 선암사길 450,#2024_여행가는달과함께하는_발도장여행지 #가족여행 #관광지 #교과서속여행 #불교 #불교문화 #사찰 #사찰&산사 #사찰여행 #선암사 #선암사(순천) #승선교 #아이와함께 #역사 #역사유적지 #유네스코 #유네스코세계문화유산 #유네스코세계유산 #자연좋은곳 #전통사찰 #전통역사문화체험 #종교 #친구와함께 #템플스테이 #한국불교,78,381,34.9961821309022,127.327355954493,6
381,6,주암호와 상사호,전라남도 순천시 송광면,#가족여행 #경치좋은곳 #관광지 #상사호 #순천여행 #자연 #자연관광지 #자연좋은곳 #자연환경 #전라권 #주암호,78,382,34.9740808402069,127.263841176795,6
382,1,청남대,충청북도 청주시 상당구 문의면 청남대길 646,#19_20한국관광100선 #2024_여행가는달과함께하는_발도장여행지 #21_22한국관광100선 #가족여행 #관광지 #산책길 #산책하기 #산책하기좋은곳 #아이와함께 #역사공부 #역사속으로 #역사이야기 #자연좋은곳 #자연환경 #청남대 #충청권 #한국관광100선 #힐링,79,383,36.4622489023318,127.490094954363,3
383,2,대청호,대전광역시 동구 / 충청북도 문의면,#2024_여행가는달과함께하는_발도장여행지 #관광지 #산책코스 #산책하기좋은곳 #아이와함께 #자연 #자연속으로 #자연여행 #자연좋은곳 #자연풍경 #자연환경 #휴식공간 #휴식여행 #휴식하기 #휴식하기좋은곳,79,384,36.4792817,127.484534,3
384,3,대청댐,대전광역시 대덕구 대청로 618-136,#가족여행 #경치좋은곳 #관광지 #대청댐 #대청호 #물홍보관 #산책하기좋은곳 #생태관광 #자연 #자연좋은곳 #충청권,79,385,36.4744348881081,127.481538138225,3
385,4,현암사(충북),충청북도 청주시 서원구 현도면 대청호반로 151,#관광지 #불교 #불교문화 #사찰 #사찰여행 #역사 #자연속으로 #자연환경 #전통사찰 #종교 #한국불교 #휴식공간 #휴식여행 #휴식하기 #휴식하기좋은곳,79,386,36.4802356864893,127.477368696553,3
386,5,문의문화재단지,충청북도 청주시 상당구 문의면 대청호반로 721,#가족여행 #관광지 #문의문화재단지 #문화관광해설사 #박물관 #아이와함께 #역사 #역사공부 #역사관광지 #역사를품은곳 #역사문화재 #역사속 #역사속으로 #역사여행 #역사유적 #역사유적지 #역사이야기 #역사탐방 #역사탐험 #전시관 #충청권,79,387,36.5071130719524,127.493719514717,3
387,1,포항 해안드라이브,경상북도 포항시 북구 해안로 226,#드라이브코스 #해안드라이브 #드라이브여행 #연인과함께 #휴식여행 #경치좋은곳 #바다경치 #바다내음 #해안도로    ,80,388,36.06386291,129.3873598,6
388,1,한우산 드라이브코스,경상남도 의령군 대의면 신전리,#자연 #자연환경 #자연좋은곳 #자연풍경 #자연여행 #경상남도여행 #드라이브코스 #드라이브여행          ,81,389,35.39136398,128.1942416,5
389,1,입곡 저수지 드라이브길,경상남도 함안군 산인면 입곡공원길 225,#자연 #자연환경 #자연좋은곳 #자연풍경 #자연여행 #자연속으로 #휴식하기좋은곳 #휴식여행 #드라이브코스 #드라이브여행        ,82,390,35.26488,128.4479061,5
390,1,영덕 해안도로 드라이브,경상북도 영덕군 강구면 금진리,#드라이브 #드라이브여행 #해안드라이브 #드라이브코스 #남녀노소 #연인과함께 #경치좋은곳 #바다경치 #바다내음     ,83,391,36.37493902,129.4003273,6
391,1,진해해안도로,경상남도 창원시 진해구 남문동 산 4-1,#관광지 #드라이브하기좋은곳 #벚꽃드라이브 #풍경맛집 #진해데이트코스 #진해야경 #진해가볼만한곳,84,392,35.10096816,128.77141,5
392,1,단양 보발재,충청북도 단양군 가곡면,#관광지 #자연관광지 #보발재 #드라이브코스 #드라이브코스추천 #단양여행 #단양가볼만한곳 #단풍명소           ,85,393,37.03574864,128.4730097,3
393,1,해산령,강원특별자치도 화천군 화천읍 평화로 2393,#관광지 #화천단풍 #화천드라이브코스 #단풍여행 #비수구미계곡 #화천해산령드라이브 #재안산 #화천캠핑 #드라이브명소,86,394,38.18946345,127.799414,2
394,1,진양호 일주도로,경상남도 진주시 남강로1번길 126,#드라이브 #드라이브여행 #드라이브코스 #연인과함께 #경치좋은곳 #사진촬영 #사진찍기 #감성사진        ,87,395,35.17623258,128.035039,5
395,1,청풍쉼터,광주광역시 북구 무등로 1550,#청풍쉼터 #드라이브코스 #환벽당 #광주호 #김삿갓 #관광지 #휴식하기좋은곳 #휴식하기 #휴식여행 #휴식공간        ,88,396,35.16197948,126.9622283,7
396,1,"여차,홍포간 해안도로",경상남도 거제시 남부면 다포리 산 21-2,#자연 #자연환경 #자연좋은곳 #자연풍경 #자연여행 #경상남도여행 #휴식하기좋은곳 #휴식여행 #남녀노소 #드라이브코스 #드라이브여행             ,89,397,34.71444779,128.6349127,5
397,1,비토섬 가는길,경상남도 사천시 용현면 종포길 242,#자연환경 #자연풍경 #자연속으로 #자연여행 #드라이브코스 #드라이브여행 #경치좋은곳 #경치여행 #휴식여행        ,90,398,35.02498307,128.0443339,5
398,1,아산만방조제,충청남도 아산시 인주면 공세리,#해안도로 #드라이브여행 #드라이브코스 #연인과함께 #커플데이트 #일몰명소 #일몰여행 #바다풍경 #호수풍경         ,91,399,36.89543631,126.911343,3
399,1,헐티재골,경상북도 청도군 각북면 금천리,#관광지 #대구청도고개 #경북드라이브코스 #경북자전거라이딩코스 #헐티재정상 #청도각북면 #청도벚꽃 ,92,400,35.72857712,128.5665497,6
400,1,용두암해안도로,제주특별자치도 제주시 서해안로 687-1 (용담이동),#관광지 #제주해안도로 #제주드라이브길 #제주올레길17코스 #제주올레길 #용두암 #도두봉노을,93,401,33.51587005,126.5120821,9
401,1,동해 해안길,경상남도 고성군 동해면,#자연 #자연환경 #자연관광지 #자연좋은곳 #자연풍경 #자연여행 #자연속으로 #드라이브코스 #드라이브여행      ,94,402,35.075185,128.4682149,5
402,1,북한강로벚꽃길,경기도 양평군 서종면 수입리 산101,#관광지 #양평가볼만한곳 #봄꽃여행지 #벚꽃길 #경기도_여행지_추천 #경기권 #드라이브 #북한강,95,403,37.63771133,127.3663337,1
403,1,왕지벚꽃길,경상남도 남해군 설천면 노량리,#관광지 #남해가볼만한곳 #드라이브 #경상남도_여행지_추천 #경남권 #봄꽃여행지,96,404,34.93892311,127.8763369,5
404,1,구례 관광특구,전라남도 구례군 마산면 화엄사로 539,#구례관광특구 #전라권 #역사 #드라이브여행 #친환경여행 #자연좋은곳 #힐링 #트래킹 #사찰&산사 #관광지 #자연환경    ,97,405,35.25731402,127.4977425,7
405,1,밀양호,경상남도 밀양시 단장면 고례리 310,#관광지 #경남여행 #밀양사진찍기좋은 #드라이브코스 #밀양관광 #밀양여행 #인공호수,98,406,35.47570963,128.9343411,5
406,1,평인 노을길,경상남도 통영시 평인일주로 132,#자연 #자연환경 #자연좋은곳 #자연풍경 #자연여행 #드라이브여행 #드라이브코스 #연인과함께 #경상남도여행            ,99,407,34.84404007,128.3918666,5
407,1,망향정,경상북도 청도군 청려로 4957,#관광지 #운문댐 #청도드라이브 #청도가볼만한곳 #청도명소 #청도여행지 #수몰지구,100,408,35.73436072,128.9168965,6
408,1,경정해수욕장,경상북도 영덕군 축산면 영덕대게로 1726,#자연 #경상권 #바다풍경 #드라이브여행 #자연좋은곳 #바다낚시 #해수욕장 #관광지 #휴식하기좋은곳 #휴식공간     ,101,409,36.48204137,129.4330268,6
409,1,청암 하동호 산중호수길,경상남도 하동군 청암면,#자연 #자연환경 #자연좋은곳 #자연풍경 #자연여행 #경상남도여행 #휴식하기좋은곳 #휴식여행 #경치좋은곳  #드라이브코스 #드라이브여행         ,102,410,35.16753188,127.7823753,5
410,1,석천항,경기도 화성시 우정읍 기아자동차로 95,#관광지 #석천항 #서해안일몰명소 #드라이브 #낙조명소 #일몰명소 #화성항구 #출사,103,411,37.03437641,126.7869755,1
411,1,백수해안도로,전라남도 영광군 백수읍 해안로 957,#자연 #전라권 #백수해안도로 #해안절경 #드라이브코스 #풍경좋은곳 #관광지 #해안드라이브 #드라이브여행           ,104,412,35.36449984,126.3960374,7
412,1,남양주한강체육공원(남양주 수석동 체육공원),경기도 남양주시 강변북로632번길 41-9,#관광지 #남양주한강뷰카페드라이브코스 #수석동체육공원 #남양주한강체육공원,105,413,37.5865721,127.1736221,1
413,1,대왕저수지,경기도 성남시 수정구 청계산로 605,#관광지 #대왕저수지 #드라이브코스 #자전거라이딩,106,414,37.43112191,127.0864484,1
414,1,경인아라뱃길귤현나루,인천광역시 계양구 정서진로 1247,#관광지 #경인아라뱃길 귤현나루 #인천드라이브코스 #아래뱃길자전거 #귤현나루 #인천가볼만한곳 #경인아라뱃길  ,107,415,37.57281884,126.7474891,1
415,1,남당 노을 전망대,충청남도 홍성군 서부면 남당리,#관광지 #홍성노을전망대 #홍성인공백사장 #힐링명소 #바다산책 #홍성노을명소 #노을전망대석양 #홍성자전거길 #홍성해안드라이브  ,108,416,36.54359686,126.4652511,3
416,1,단장 이팝꽃 터널길,경상남도 밀양시 단장면,#자연 #자연환경 #자연좋은곳 #자연풍경 #드라이브코스 #드라이브여행 #경상남도여행 #연인과함께 #휴식여행            ,109,417,35.4855668,128.9312689,5
417,1,대가천계곡(무흘구곡),경상북도 성주군 수륜면,#자연 #경상권 #자연좋은곳 #경치좋은곳 #여름여행 #피서여행 #드라이브여행 #가족여행 #친구와함께      ,110,418,35.82829812,128.2045455,6
418,1,용담해안도로,제주특별자치도 제주시 서해안로 687-1,#관광지 #제주여행 #제주바다 #해안도로 #올레17코스 #용담이호해안도로 #제주도드라이브 #용담해안도로 #드라이브,111,419,33.51587005,126.5120821,9
419,1,옥성저수지,충청북도 진천군 문백면 옥성리,#관광지 #옥성저수지 #진천드라이브 #저수지 #저수지뷰,112,420,36.79714888,127.4497166,3
420,1,가제산,충청남도 태안군 이원면 포지리,#관광지 #태안가제산 #태안벚꽃길 #태안산 #태안가제산벚꽃터널 #벚꽃드라이브,113,421,36.86463463,126.290525,3
421,1,주암산가창저수지,경상북도 청도군 각북면 오산리,#관광지 #가창저수지 #대구가볼만한곳 #대구벚꽃 #대구드라이브 #대구여행,114,422,35.7996421,128.6099245,6
422,1,담양호관광지,전라남도 담양군 용면 월계리 149-67,#관광지 #담양호관광지 #용마루길 #추월산 #담양호 #드라이브코스 #담양군 #호반 #수상스키 #호반길드라이브,115,423,35.40198908,126.9991245,7
423,1,고남 저수지,충청남도 서산시 성연면 고남리,#관광지 #성연지 #서산저수지 #서산시저수지 #서산벚꽃 #서산시벚꽃 #서산드라이브,116,424,36.82125585,126.4253306,3
424,1,가실벚꽃길,경기도 용인시 처인구 포곡읍 가실리,#관광지 #용인가볼만한곳 #벚꽃명소 #데이트코스 #아이와함께 #친구와함께 #용인가실벚꽃길  #용인드라이브  ,117,425,37.29331478,127.1923454,1
425,1,남한산성벚꽃길,경기도 광주시 남한산성면 검복길 11,#관광지 #경기도벛꽃길 #벚꽃드라이브 #너른광주벚꽃 #벚꽃길 #남한산성벚꽃길 #봄벚꽃,118,426,37.47417996,127.1939235,7
426,1,곡성 메타세쿼이아길,전라남도 곡성군 곡성읍 읍내리,#드라이브코스 #드라이브여행 #드라이브 #연인과함께 #산책하기좋은곳 #산책로 #산책길 #산책하기           ,119,427,35.29134288,127.3009729,7
427,1,보은강 연꽃방죽,전라남도 영광군 백수읍 길용리,#관광지 #영광여행 #연꽃 #원불교 #원불교성지 #드라이브코스 #영광드라이브코스,120,428,35.32920462,126.4432229,7
428,1,주산벚꽃로,충청남도 보령시 주산면 동막오상길 15-4,#관광지 #주산벚꽃로 #보령벚꽃 #주산벚꽃길 #보령드라이브,121,429,36.23236898,126.6433404,3
429,1,장사해수욕장,경상북도 영덕군 남정면 동해대로 3592,#가족여행 #여름휴가 #바다풍경 #자연 #관광지 #피서 #바다경치 #바다내음 #여름피서지 #자연좋은곳 #자연풍경    ,122,430,36.28243793,129.3755822,6
430,1,대부도,경기도 안산시 단원구 대부황금로 1531,#자연 #관광지 #해안드라이브 #서울근교여행 #수도권 #드라이브여행 #갯벌체험 #아이와함께 #가족과함께    ,123,431,37.24372086,126.5852714,1
431,1,두남천,전북특별자치도 진안군 부귀면 두남리 170,#자연 #관광지 #자연환경 #자연좋은곳 #자연풍경 #자연여행 #자연속으로 #경치좋은곳 #경치여행 #힐링여행    #드라이브,124,432,35.84301017,127.4170788,8
432,1,울진 해안도로,경상북도 울진군 근남면 망양정로 971,#해안도로 #드라이브여행 #해안드라이브 #드라이브코스 #연인과함께 #가족과함께 #자연환경 #자연좋은곳      ,125,433,36.9642388,129.4143834,6
433,1,장승포 해안일주도로,경상남도 거제시 장승포해안로 18,#관광지 #거제여행 #거제드라이브 #장승포해안일주도로 #거제가볼만한곳 #거제도전망좋은곳 #거제도여행 #거제도드라이브 ,126,434,34.86287187,128.7326475,5
434,1,함양 지안재,경상남도 함양군 함양읍 구룡리 산 119-3,#관광지 #아름다운길 #한국의아름다운길100선 #함양사진명소 #함양관광 #함양여행 #함양드라이브 #드라이브코스,127,435,35.47335431,127.7021188,5
435,1,관성솔밭해변,경상북도 경주시 양남면 양남로 68-24,#경상권 #가족여행 #연인과함께 #친구와함께 #여름여행 #여름휴가 #바다풍경 #자연좋은곳 #여름방학가볼만한곳                 ,128,436,35.66223725,129.4525045,6
436,1,정취암 가는길,경상남도 산청군 신등면,#자연환경 #자연좋은곳 #자연풍경 #자연여행 #자연속으로 #휴식하기좋은곳 #휴식여행 #경치좋은곳 #경치여행  #드라이브코스 #드라이브여행      ,129,437,35.39882588,127.9749023,5
437,1,고성 자란만,경상남도 고성군 하일면 용태1길,#자연 #관광지 #해안드라이브 #바다향기 #자란도 #포교마을 #참장어,130,438,34.94044552,128.211477,5
438,1,구성재,전라남도 곡성군 오곡면 신풍리,#드라이브 #드라이브코스 #드라이브여행 #연인과함께 #경치좋은곳 #자연환경 #자연좋은곳 #사진촬영 #사진찍기     ,131,439,35.21164316,127.2787186,7
439,1,두왕 메타세쿼이아길,울산광역시 남구 신두왕로 327 (옥동),#관광지 #울산드라이브 #울산메타세쿼이아길 #지산저수지산책길 #울산산책길 #메타세쿼이아길 #울산산책 ,132,440,35.52376639,129.2884977,4
440,1,창포 해안길,경상남도 창원시 마산합포구 구산면 해양관광로 1872-60,#자연 #자연환경 #자연좋은곳 #드라이브여행 #드라이브코스 #연인과함께 #휴식하기좋은곳 #휴식여행 #경치좋은곳       ,133,441,35.067607,128.5628541,5
441,1,영천댐,경상북도 영천시 자양면 포은로 1792,#자연 #경상권 #드라이브여행 #경치좋은곳 #연인과함께 #친구와함께 #걷기길 #데이트코스 #봄꽃여행 #관광지     #드라이브코스 ,134,442,36.06357252,129.0136259,6
442,1,영덕복사꽃마을,경상북도 영덕군 삼화2길 18,#관광지 #영덕복숭아꽃 #영덕복숭아밭 #영덕드라이브코스 #국도34번 #복사꽃큰축제 #삼화리복사꽃 #주응리복사꽃,135,443,36.43943871,129.3320731,6
443,1,서해대교,경기도 평택시 포승읍,#수도권 #서해대교 #대교 #바다 #풍경좋은곳 #경치좋은곳 #드라이브코스 #관광지 #드라이브여행 #야경좋은곳         ,136,444,36.9483677,126.8321237,1
444,1,불모산노을전망대,경상남도 창원시 진해구 소사동 산 24,#관광지 #창원불모산노을전망대 #창원데이트코스 #창원드라이브코스 #창원노을 #창원불모산 #일출일몰,137,445,35.14642108,128.7542936,5
445,1,제주대 벚꽃길,제주특별자치도 제주시 제주대학로 102,#벚꽃길 #드라이브코스 #드라이브여행 #휴식여행 #휴식하기 #휴식하기좋은곳 #자연환경 #커플데이트 #데이트장소추천        ,138,446,33.45794671,126.5624124,9
446,1,서귀포 가시리마을 (녹산로 유채꽃도로),제주특별자치도 서귀포시 표선면 가시로565번길 20,#체험 #관광지 #드라이브여행 #드라이브코스 #연인과함께 #자연환경 #자연마을 #경치좋은곳 #사진찍기좋은곳            ,139,447,33.35327551,126.7716355,9
447,1,영흥대교,인천광역시 옹진군 영흥면,#수도권 #영흥대교 #대교 #야경 #관광지 #건축물 #드라이브 #야간드라이브 #영흥면 #연인과함께 #바다낚시      ,140,448,37.25344621,126.5107168,1
448,1,동산계곡,대구광역시 군위군 부계면 원효길,#자연 #관광지 #군위동산계곡 #팔공산원시림계곡 #군위멱바위 #팔공산여름계곡 #팔공산물놀이 #79번국도 #경북드라이브코스,141,449,36.04206019,128.6691847,6
449,1,포천수원산정상전망대,경기도 포천시 군내면 직두리,#관광지 #포천수원산 #포천전망대 #포천드라이브코스 #포천수원산등산코스 #수원산전망대 #직두리부부송,142,450,37.85736449,127.2650893,1
450,1,욕지도해안일주도로,경상남도 통영시 욕지면,#관광지 #통영가볼만한곳 #드라이브 #경상남도_여행지_추천 #경남권 #욕지도,143,451,34.636361,128.2633998,5
451,1,자유로자동차극장,경기도 파주시 탄현면 엘지로 697,#문화시설 #파주가볼만한곳 #자동차극장 #영화관 #데이트코스 #아이와함께 #친구와함께   ,144,452,37.83477699,126.7354912,1
452,1,화양조발대교,전라남도 여수시 화양면,#관광지 #드라이브여행 #해안드라이브 #드라이브코스 #여수야경 #여수야경명소 #연인과함께 #커플데이트      ,145,453,34.63621292,127.5753682,7
453,1,한천저수지,충청남도 공주시 우성면 한천리 75,#관광지 #공주여행 #공주데이트코스 #공주저수지 #공주산책 #공주낚시,146,454,36.51874109,127.0876401,3
454,1,영광풍력발전단지,전라남도 영광군 염산면 송암리,#관광지 #영광여행 #영화독전 #영화촬영지 #영광영화촬영지 #영화독전촬영지 #일몰명소 #영광일몰명소,147,455,35.24442371,126.3446588,7
455,1,오로저수지,경상북도 구미시 장천면 장천오로3길 7,#관광지 #오로저수지 #구미드라이브 #구미저수지 #구미가볼만한곳,148,456,36.1771061,128.5269573,6
456,1,숙암계곡,강원특별자치도 정선군 북평면 단임길,#자연 #숙암계곡 #강원권 #봄꽃여행 #드라이브여행 #연중무휴 #자연좋은곳 #경치좋은곳 #관광지 #정선힐링여행  #정선드라이브코스,149,457,37.48571292,128.5892831,2
457,1,성산세화해안도로,제주특별자치도 제주시 구좌읍 종달리 112-1,#관광지 #제주여행 #하도해수욕장 #별방진 #성산세화해안도로 #제주가볼만한곳 #제주드라이브코스 ,150,458,33.51009092,126.9065285,9
458,1,시화호,경기도 안산시 단원구 대부황금로 1927,#자연 #시화호 #서울근교여행지 #수도권 #관광지 #안산인공호수 #인공호수 #호수 #시화방조제 #안산드라이브 #드라이브 ,151,459,37.26083185,126.8488469,1
459,1,사정저수지,충청북도 음성군 음성읍 사정리 1223-29,#관광지 #음성여행 #음성드라이브 #음성저수지 #음성낚시 #음성산책,152,460,36.97789492,127.6131191,3
460,1,백리벚꽃길,경상남도 합천군 용주면 합천호수로 757,#관광지 #합천 #벚꽃 #벚꽃거리 #벚꽃나들이 #벚꽃드라이브 #합천호 #합천호뷰 #호반도로,153,461,35.54844963,128.0728619,5
461,1,담양 메타세쿼이아길,전라남도 담양군 담양읍 메타세쿼이아로 12,#담양메타세쿼이아길 #전라권 #걷기길 #자전거여행 #드라이브여행 #가족여행 #연인과함께 #데이트코스 #관광지           ,154,462,35.32385356,127.0041511,7
462,1,도마령,충청북도 영동군 용화면 조동리,#역사 #충청권 #도마령 #자연 #관광지 #자연환경 #자연좋은곳 #자연여행 #드라이브코스 #드라이브여행        ,155,463,36.06239499,127.8115184,3
463,1,정자항,울산광역시 북구 정자1길 60-12 (정자동),#관광지 #울산여행 #울산바닷가 #울산귀신고래등대 #귀신고래회유해면 #울산해안드라이브 #강동몽돌해변  ,156,464,35.61836161,129.4517836,4
464,1,월정리해안도로,제주특별자치도 제주시 구좌읍 월정리 652-4,#관광지 #제주여행 #풍력발전기 #해안도로 #제주해안도로 #월정리카페 #드라이브 #제주가볼만한곳 #월정리해변    #제주도드라이브,157,465,33.55661174,126.7949344,9
465,1,노동 저수지,전북특별자치도 고창군 고창읍 노동로 252,#관광지 #고창여행 #저수지 #드라이브코스 #고창드라이브코스 #수변공원 #고창수변공원,158,466,35.42019041,126.7080777,8
466,1,팔당호,경기도 광주시 남종면,#자연 #관광지 #자연환경 #자연좋은곳 #자연풍경 #자연여행 #자연속으로 #경치좋은곳 #친구와함께   ,159,467,37.50527541,127.2950995,7
467,1,남포방조제,충청남도 보령시 남포방조제로 154,#남포방조제 #바다풍경 #자연좋은곳 #충청권 #아이와함께 #친구와함께 #나홀로여행 #가족여행 #연인과함께      ,160,468,36.28360574,126.5374458,3
468,1,대부도 메타세콰이어길,경기도 안산시 단원구 대부황금로 1480-7,#관광지 #대부바다향기테마파크 #하훼단지 #나들이 #드라이브 #대부도여행,161,469,37.28632684,126.5745656,1
469,1,무지갯빛 해안도로,경상남도 사천시 용현면,#자연 #자연환경 #해안도로 #산책코스 #산책하기좋은곳 #힐링산책 #바다내음 #바다경치 #사천가볼만한곳       ,162,470,35.01027368,128.0482506,5
470,1,국립 유명산자연휴양림,경기도 가평군 설악면 유명산길 79-53,#국립유명산자연휴양림 #유명산 #수도권 #서울근교여행 #자연&숲 #치유 #가족여행 #친구와함께 #등산 #등산로            ,163,471,37.59336321,127.4912014,1
471,1,성주댐(성주호),경상북도 성주군 가천면 중산3길,#자연 #경상권 #성주댐 #성주호 #드라이브코스 #풍경좋은곳 #관광지,164,472,35.90984056,128.1444458,6
472,1,춘천호,강원특별자치도 춘천시 사북면 원평리,#자연 #강원권 #가족여행 #아이와함께 #드라이브여행 #민물낚시 #호수 #자연좋은곳 #경치좋은곳 #빙어낚시   ,165,473,37.98255715,127.6580192,2
473,1,거잠포선착장,인천광역시 중구 잠진도길 11 (운서동),#관광지 #거잠포선착장 #서해일출 #서해바다 #영종도 #인천선착장 #용유도,166,474,37.42211402,126.4254255,1
474,1,대부도 방아머리 음식문화거리,경기도 안산시 단원구 대부북동,#방아머리먹거리타운 #수도권 #대부도 #음식문화거리 #관광지 #맛집 #숨은맛집 #전국맛집 #맛집탐방 #음식거리          ,167,475,37.28849051,126.5761515,1
475,1,나주호,전라남도 나주시 다도면 방산리,#자연 #관광지 #전라남도여행 #나주여행 #인공호수 #나주호낚시 #드라이브코스 #드라이브코스추천  ,168,476,34.94741313,126.8636285,7
476,1,청계천,서울특별시 종로구 창신동,#청계천 #드라이브여행 #수도권 #아이와함께 #친구와함께 #연인과함께 #가족여행 #체험학습 #데이트코스 #힐링      ,169,477,37.56970158,127.0050907,1
477,1,대청호 마산동 쉼터,대전광역시 동구 마산동,#관광지 #대청호마산동쉼터,170,478,36.38127765,127.4787616,3
478,1,형제해안도로,제주특별자치도 서귀포시 안덕면 사계리 3682,#관광지 #제주여행 #제주바다 #형제해안도로 #트레킹 #송악산 #제주해안도로 #산방산 #드라이브코스 #사계해변  ,171,479,33.23826153,126.3157582,9
479,1,고산일과해안도로 (일과리해안도로),제주특별자치도 서귀포시 대정읍 신도리 3135-1,#관광지 #제주여행 #제주해안도로 #제주도해안도로 #일과리해안도로 #제주바다뷰 #제주가볼만한곳 #제주드라이브 ,172,480,33.27516355,126.1723198,9
480,1,매향항선착장,경기도 화성시 우정읍 매향선창길 71,#관광지 #매향항선착장 #서해드라이브코스 #매향리선착장 #일몰명소 #당일치기여행 #농섬 #화성가볼만한곳,173,481,37.03550617,126.7487567,1
481,1,소담수목원,경상남도 고성군 동해면 외산로 592,#관광지 #자연환경 #자연좋은곳 #휴식하기좋은곳 #휴식공간 #휴식여행 #휴식하기 #연인과함께 #데이트장소추천 #드라이브코스 #드라이브여행,174,482,35.06371122,128.4645517,5
482,1,보통리저수지,경기도 화성시 정남면 보통리 38,#관광지 #보통리저수지 #드라이브코스 #수원과학대 #산책하기좋은 #반려견산책 #주말나들이 #출사지,175,483,37.19492783,126.9744985,1
483,1,거가대교,경상남도 거제시 장목면 유호리,#드라이브여행 #드라이브코스 #야경좋은곳 #부산야경 #야경투어 #야경명소 #연인과함께 #커플데이트     ,176,484,35.0175821,128.7190862,5
484,1,적금대교(여수),전라남도 여수시 화정면,#관광지 #가족과함께 #경치여행 #경치좋은곳 #드라이브코스 #해안드라이브 #드라이브여행 #바다경치 #여수바다     ,177,485,34.6203388,127.5230593,7
485,1,제천왕건촬영지,충청북도 제천시 금성면 청풍호로 1480,#관광지 #제천여행 #영화촬영지 #드라마촬영지 #충주호 #드라마세트장,178,486,37.03373772,128.1746254,3
486,1,갓바위 문화타운,전라남도 목포시 남농로 135,#갓바위문화타운 #전라권 #체험학습 #드라이브여행 #바다풍경 #야경투어 #기념관 #박물관 #체험     ,179,487,34.79365643,126.4209824,7
487,1,설천 남해해안도로,경상남도 남해군 설천면,#경상남도여행 #자연 #자연환경 #자연좋은곳 #자연풍경 #자연여행 #경치좋은곳 #경치여행 #드라이브코스 #드라이브여행     ,180,488,34.93967566,127.8682904,5
488,1,제부도등대,경기도 화성시 서신면 해안길 421-20,#관광지 #제부도등대 #출사 #당일치기여행 #드라이브 #일몰명소 #인생샷 #데이스코스,181,489,37.17924287,126.6220059,1
489,1,도리포,전라남도 무안군 해제면,#자연 #가족여행 #전라권 #일출 #일몰 #경치좋은곳 #관광지 #일출일몰명소 #자연환경 #자연좋은곳 #자연풍경    ,182,490,35.15665868,126.3464691,7
490,1,노을이 물드는 언덕,경상남도 거제시 사등면 가조로 565,#경상권 #드라이브여행 #해맞이&해돋이&해넘이여행 #바다풍경 #관광지 #사진촬영명소 #사진찍기좋은곳 #데이트            ,183,491,34.95523546,128.5187165,5
491,1,남당항어촌마을,충청남도 홍성군 서부면 남당리,#자연 #관광지 #휴식하기좋은곳 #자연환경 #자연마을 #자연좋은곳 #자연풍경 #자연여행 #휴식여행 #힐링여행        ,184,492,36.54814083,126.4676007,3
492,1,무녀교,전북특별자치도 군산시 옥도면,#관광지 #현수교 #군산무녀교 #교량 #드라이브 #군산다리 #군산여행 #무녀도,185,493,35.81333571,126.4441357,8
493,1,남제주 억새오름길,제주특별자치도 서귀포시 성산읍 제성로,#자연 #관광지 #제주억새오름 #제주드라이브 #제주오름길 #제주가을여행 #제주여행 #제주자연관광지,186,494,33.4498916,126.880996,9
494,1,둔병대교(여수),전라남도 여수시 화정면,#관광지 #가족과함께 #경치여행 #경치좋은곳 #드라이브코스 #해안드라이브 #드라이브여행 #바다경치 #여수바다      ,187,495,34.63134934,127.5614084,7
495,1,용담호,전북특별자치도 진안군 용담면 월계리,#자연 #관광지 #용담호 #드라이브코스 #벚꽃길 #벚꽃명소 #자연관광지 #가족과함께 ,188,496,35.93454286,127.4987191,8
496,1,충장사,광주광역시 북구 송강로 13,#역사 #전라권 #충장사 #유적지 #역사관광지 #역사문화재 #역사공부 #역사문화 #역사관광 #역사속으로 #역사이야기          ,189,497,35.16256025,126.9787157,7
497,1,당거리나루터,경기도 평택시 오성면 당거리 226-1,#관광지 #평택당거리나루터 #평택드라이브길 #평택당거리벚꽃 #평택당거리유채꽃 #평택당거리,190,498,36.99258469,126.9824478,1
498,1,가시리국산화풍력발전단지,제주특별자치도 서귀포시 표선면 녹산로 464-78,#관광지 #서귀포억새 #가시리목장 #가시리마을 #녹산로유채꽃길 #표선면유채꽃명소 #제주사진명소   ,191,499,33.39393708,126.73411,9
499,1,올림픽대교,서울특별시 송파구 신천동,#올림픽대교 #수도권 #야경 #서울올림픽 #다리 #한강 #건축물 #관광지 #야경여행 #야경명소 #서울야경  #드라이브코스 #야간드라이브    ,192,500,37.53241605,127.1053604,1
500,1,거금대교,전라남도 고흥군 도양읍,#관광지,193,501,34.50669762,127.1293326,7
501,1,천사대교,전라남도 신안군 암태면 신석리,#관광지 #천사대교 #드라이브여행 #경치좋은곳 #바다경치 #경치여행 #자연환경 #자연좋은곳 #자연여행 #가족과함께     ,194,502,34.86075563,126.154285,7
502,1,낙산해안로,강원특별자치도 양양군 강현면 물치천로 28,#관광지 #해안데크 #해안길산책 #산책하기좋은곳 #해안산책 #힐링산책 #휴식하기좋은곳 #힐링여행 #바다내음 #바다경치 ,195,503,38.15343585,128.6051167,2
503,1,해맞이해안로,제주특별자치도 제주시 구좌읍 김녕리,#관광지 #제주여행 #제주도바다뷰 #제주도해맞이 #해맞이해안로 #올레코스 #해안도로 #제주도드라이브하기좋은곳  #제주드라이브코스,196,504,33.5504227,126.7427252,9
504,1,장곡사벚꽃길,충청남도 청양군 대치면 장곡길 241,#관광지 #청양여행 #한국의아름다운길100선 #청양포토존 #청양산책 #청양벚꽃 #벚꽃나들이 #청양데이트코스,197,505,36.4176737,126.8602744,3
505,1,분지섬저수지,경기도 화성시 남양읍 문호리,#관광지 #분지섬저수지 #가시리마을 #화성가볼만한곳 #조용한 #나들이 #힐링,198,506,37.24746853,126.793244,1
506,1,관음산,경기도 포천시 이동면,#자연 #수도권 #관음산 #트레킹 #풍경좋은곳 #관광지 #자연환경 #자연좋은곳 #등산 #등산객 #휴식하기좋은곳  ,199,507,38.02857314,127.3111023,1
507,1,제동목장 입구,제주특별자치도 제주시 조천읍 교래7길 218,#관광지 #제주포토스팟 #제주여행 #제주관광 #제주사진명소 #웨딩촬영지 #목장진입로 #제주가볼만한곳,200,508,33.41953366,126.6969266,9
508,1,강화도동부해안도로,인천광역시 강화군 양도면 해안서로 508,#관광지 #강화 #용당돈대 #용진진 #용두돈대 #강화동부해안도로 #오두돈대 #초지진 #강화도 유적    ,201,509,37.67741723,126.4023067,1
509,1,팔복동 천변,전북특별자치도 전주시 덕진구 팔복동1가,#관광지 #전주여행 #전주천 #전주천길 #벚꽃 #벚꽃길 #자전거 #자전거길,202,510,35.85888909,127.1086697,8
510,1,궁평유원지,경기도 화성시 서신면 궁평리 513-9,#관광지 #궁평유원지 #데이트코스 #일몰명소 #드라이브코스 #화성가볼만한곳 #피크닉 #서해안드라이브,203,511,37.12849426,126.6833017,1
511,1,박달재목각공원,충청북도 제천시 백운면 박달로 231,#제천여행 #박달재목각공원 #제천드라이브 #제천산책 #제천공원 #제천데이트코스 #관광지,204,512,37.14508937,128.05623,3
512,1,봉화선유교,경상북도 봉화군 명호면 풍호리,#관광지 #예던길 #대한민국아름다운길 #범바위전망대 #봉화가볼만한곳 #봉화여행 #35번국도 #경북출렁다리,205,513,36.82671664,128.890623,6
513,1,홍도마을,충청남도 금산군 홍도1길 53-2,#체험 #홍도마을 #충청권 #체험학습 #가족여행 #아이와함께 #농촌체험 #관광지 #자연환경 #자연마을           ,206,514,36.01775042,127.5194067,3
514,1,거제대교,경상남도 거제시 사등면 덕호리,#관광지 #건축물 #대교 #경치좋은곳 #바다경치 #거제도가볼만한곳 #해안드라이브 #드라이브여행 #야간드라이브       ,207,515,34.88370382,128.4764387,5
515,1,목포대교,전라남도 목포시 고하대로597번길 73,#관광지 #야경좋은곳 #야경명소 #목포가볼만한곳 #목포여행 #드라이브여행 #드라이브코스 #연인과함께 #가족과함께    ,208,516,34.79889374,126.3604293,7
516,1,동백대교,전북특별자치도 군산시 금동,#관광지 #아치교 #교량 #대교 #군산동백대교 #군산여행 #군산가볼만한곳 #드라이브,209,517,35.99435005,126.7059771,8
517,1,그리움이 물들면,경상남도 사천시 대포동,#관광지 #사천사진명소 #사천관광 #사천방파제 #대포항방파제 #사천대포항 #무재개해안도로,210,518,34.98830099,128.0393158,5
518,1,운문댐. 동창천,경상북도 청도군 운문면,#자연 #관광지 #운문댐 #운문호 #댐 #동창천 #청도운문호 #운문댐유원지 #금천체육공원,211,519,35.72879486,128.9267375,6
519,1,석련사(홍성),충청남도 홍성군 구항면 구성북로160번길 76,#역사 #관광지 #사찰 #전통사찰 #사찰여행 #불교 #불교문화 #한국불교 #종교 #휴식하기좋은곳 #휴식하기    ,212,520,36.60453693,126.6182079,3
520,1,이풀실내정원,경기도 안산시 상록구 반월천북길 139-18 안산이풀식물박물관,#관광지 #실내식물원 #식물원 #안산식물원 #데이트 #드라이브,213,521,37.31072957,126.8892835,1
521,1,닭머르해안길,제주특별자치도 제주시 조천읍 신촌북3길 62-1,#자연 #자연환경 #자연관광지 #자연좋은곳 #자연풍경 #자연여행 #자연속으로 #드라이브코스 #드라이브여행          ,214,522,33.53783312,126.6132645,9
522,1,흑산도,전라남도 신안군 흑산면 진마을길 11,#자연 #관광지 #신안흑산도 #전라남도섬여행 #흑산도해안도로 #드라이브길추천 #드라이브명소     ,215,523,34.68294745,125.4274063,7
523,1,화태대교,전라남도 여수시 돌산읍,#관광지 #여수 #다리 #여수여행 #드라이브 #관광도로,216,524,34.60536083,127.7372243,7
524,1,황포돛대 노래비,경상남도 창원시 진해구 남영로 373,#관광지 #영길만 #도로변 #드라이브여행 #바다내음 #바다향기로 #바다전망 #바다산책 #산책하기좋은곳 #산책길     ,217,525,35.10375132,128.7793565,5
525,1,5.16 도로숲터널,제주특별자치도 서귀포시 남원읍 신례천로 267-110,#관광지 #제주여행 #제주도드라이브 #드라이브코스 #제주마방목지 #제주도여행지추천 #천연숲터널    ,218,526,33.31403869,126.6304292,9
526,1,신창풍차해안도로,제주특별자치도 제주시 한경면 신창리 1322-1,#관광지 #해안절경 #해안드라이브 #자연관광지 #신창풍차해안도로 #제주도여행코스 #제주도_가볼만한곳   #제주해안드라이브 ,219,527,33.34344769,126.1739015,9
527,1,화양면 벚꽃길,전라남도 여수시 화양면 장수리,#관광지 #여수여행 #여수화양면 #여수봄꽃명소 #여수벚꽃명소 #여수벚꽃길,220,528,34.6732225,127.5654792,7
528,1,조천함덕 해안도로,제주특별자치도 제주시 조천읍 조함해안로 525,#관광지 #제주여행 #제주드라이브 #드라이브코스추천 #조천함덕해안도로 #해안도로 #제주해안도로 #함덕해수욕장,221,529,33.5428196,126.6705344,9
529,1,중미산자연휴양림,경기도 양평군 옥천면 중미산로 1152,#자연 #중미산자연휴양림 #수도권 #힐링 #휴양여행 #관광지 #중미산 #가족과함께 #힐링여행 #산책하기좋은곳      ,222,530,37.58180004,127.4571548,1
530,1,가일미술관,경기도 가평군 청평면 북한강로 1549,#가일미술관 #가족여행 #서울근교여행 #미술관 #실내여행지 #힐링 #이색카페 #예술 #문화시설 #가평최초미술관 #가평   ,223,531,37.66040616,127.3794096,1
531,1,궁평해송군락지,경기도 화성시 서신면 궁평리 660-41,#관광지 #궁평해송군락지 #데이트코스 #일몰맛집 #드라이브코스 #일몰명소 #산책하기좋은 #서해안가볼만한곳,224,532,37.12096461,126.6850462,1
532,1,원남저수지(원남제),충청북도 음성군 원남면 조촌리 1388-1,#관광지 #음성여행 #음성드라이브 #음성저수지 #음성낚시 #음성산책,225,533,36.87071269,127.605945,3
533,1,제부도 아트파크,경기도 화성시 서신면 해안길 322,#관광지 #화성가볼만한곳 #레드닷어워드 #전시공간 #드라이브코스 #제부도아트파크 #당일치기여행 #문화체험,226,534,37.17014107,126.6177649,1
534,1,마포대교,서울특별시 마포구 마포동,#마포대교야경 #야경투어 #데이트코스 #연인과함께 #친구와함께 #도심여행 #관광지 #야경좋은곳    #드라이브여행      ,227,535,37.53647097,126.9418447,1
535,1,남해 물건리 방조어부림,경상남도 남해군 삼동면 동부대로1030번길 59,#자연 #가족여행 #경상권 #천연기념물 #일출 #월출 #해돋이명소 #자연유산 #경치좋은곳 #자연좋은곳 #역사    #드라이브코스      ,228,536,34.79588664,128.0505059,5
536,1,신항 바다쉼터,인천광역시 연수구 송도동 386-4,#관광지 #신항바다쉼터 #송도힐링장소 #송도바다산책로 #인천바다쉼터 #송도가볼만한곳 #송도바다쉼터 #송도드라이브코스 ,229,537,37.34532348,126.614777,1
537,1,화산산성,대구광역시 군위군 고로면 화북리,#역사 #화산산성 #경상권 #역사유적지 #경상북도기념물 #역사관광 #역사여행 #역사유적 #역사유적지 #역사속으로           ,230,538,36.09831423,128.7813732,6
538,1,신평소공원,부산광역시 기장군 일광면 일광로 582-47,#관광지 #신평소공원 #부산데이트 #부산가볼만한곳 #부산공원 #부산신평소공원 #기장드라이브 #여행구독 ,231,539,35.29271679,129.2600539,4
539,1,논짓물,제주특별자치도 서귀포시 예래해안로 253,#관광지 #논짓물 #가족여행 #아이와함께 #올레8코스 #천연수영장 #용천수 #예래포구 #제주도수영장 #해수풀장,232,540,33.2369517,126.3881241,9
540,1,죽동마을,경상남도 창원시 의창구 동읍 봉강가술로237번길 8,#관광지 #죽동마을 #메타세쿼이아길 #가로수길 #창원관광 #창원여행 #단풍구경,233,541,35.352891,128.680675,5
541,1,묵리계곡,경기도 용인시 처인구 이동읍 묵리,#관광지 #용인가볼만한곳 #서울근교계곡 #용인계곡 #용인물놀이 #용인피서지 #용인다슬기 #용덕사천,234,542,37.17135192,127.237517,1
542,1,사라봉공원,제주특별자치도 제주시 사라봉동길 74,#걷기여행 #가족여행 #연인과함께 #친구와함께 #아이와함께 #사계절 #피크닉 #전망좋은곳 #전망대 #나들이 #힐링       ,235,543,33.51806202,126.5460485,9
543,1,고흥 작약 꽃밭,전라남도 고흥군 해맞이로 1175 종교시설,#관광지 #고흥여행 #고흥꽃여행 #고흥작약 #작약꽃 #작약포토스팟 #작약인생샷 #고흥인생샷 #여수바다 ,236,544,34.6051735,127.5033558,7
544,1,나래공원,충청남도 부여군 부여읍 신기정로94번길 17-17,#관광지 #부여여행 #부여드라이브 #부여산책 #부여공원 #부여데이트코스,237,545,36.26307834,126.9070687,3
545,1,유치자연휴양림,전라남도 장흥군 유치면 휴양림길 154,#자연 #유치자연휴양림 #전라권 #가족여행 #힐링 #휴양여행 #관광지 #편백숲 #숲캉스 #휴양림      ,238,546,34.76804945,126.8323801,7
546,1,백범김구선생상(백범 광장),서울특별시 중구 회현동,#백범김구선생상 #유적지 #전통&역사문화체험 #아이와함께 #도심여행 #수도권 #드라이브여행 #나들이 #체험학습          ,239,547,37.55492507,126.9798934,1
547,1,병암유원지,충청남도 논산시 가야곡면 덕은로636번길 46,#관광지 #논산여행 #논산드라이브 #논산산책 #논산유원지 #논산데이트코스,240,548,36.17060234,127.1989145,3
548,1,송산그린시티전망대,경기도 화성시 송산면 고정리 산1-38,#관광지 #송산그린시티전망대 #우음도 #화성가볼만한곳 #드라이브코스,241,549,37.28751295,126.7399894,1
549,1,죽성성당(드림세트장),부산광역시 기장군 기장읍 죽성리 134-7,#죽성성당 #드라마촬영지 #해안도로 #드라이브코스 #사진찍기좋은곳 #체험관광지 #관광지 #이색체험      ,242,550,35.24122234,129.2478869,4
550,1,광주천 벚꽃길,광주광역시 북구 임동 613,#관광지 #광주가볼만한곳 #벚꽃 #봄꽃여행지 #광주_여행지_추천 #광주권 #걷기좋은길 #광주천,243,551,35.16601664,126.8868043,7
551,1,후릿개다리,경상남도 거제시 다포4길 14,#관광지 #거제후릿개다리 #다대다포항 #다대리 #거제해상데크길 #해상산책길 #거제포토존      ,244,552,34.73025136,128.6225912,5
552,1,낭도대교(여수),전라남도 여수시 화정면,#관광지 #경치여행 #가족과함께 #경치좋은곳 #해안드라이브 #드라이브여행 #드라이브코스 #바다경치 #여수바다     ,245,553,34.62535805,127.5441823,7
553,1,유명산,경기도 가평군 설악면,#자연 #수도권 #유명산 #산 #전망좋은곳 #관광지 #자연환경 #자연좋은곳 #자연발생 #자연풍경 #등산         ,246,554,37.58916643,127.4885156,1
554,1,싱계물공원,제주특별자치도 제주시 한경면 신창리 1322-1,#관광지 #제주여행 #웨딩촬영 #낙조 #제주해안도로 #용천수 #풍력발전기 #제주도여행지추천 #싱계물공원    #드라이브코스,247,555,33.34344769,126.1739043,9
555,1,수룡항 포구,충청남도 홍성군 서부면 신리 660,#관광지 #수룡항포구 #홍성풍력발전 #홍성포구 #홍성여행 #홍성가볼만한곳,248,556,36.51619753,126.4821058,3
556,1,의성가음지,경상북도 의성군 신평면 덕봉리,#관광지 #의성가볼만한곳 #봄꽃여행지 #경상북도_여행지_추천 #경북권 #저수지,249,557,36.46834548,128.5440253,6
557,1,청룡지,경기도 안성시 서운면 청룡길 17,#관광지 #안성청룡지 #안성벚꽃길 #안성청룡사 #안성청룡저수지 #안상호수,250,558,36.90443351,127.2811983,1
558,1,황령산 전망대,부산광역시 남구 황령산로 391-39,#관광지 #경치좋은곳 #부산경치 #경치여행 #부산여행가볼만한곳 #야경여행 #야경좋은곳 #부산야경 ,251,559,35.15793416,129.0827286,4
559,1,횟집명소거리,강원특별자치도 동해시 일출로 151,#관광지,252,560,37.55665392,129.1207943,2
560,1,장계관광지,충청북도 옥천군 안내면 장계1길 57,#관광지 #옥천여행 #옥천드라이브 #옥천포토존 #옥천산책 #옥천데이트코스,253,561,36.37758087,127.6350255,3
561,1,섬진강변 유원지,전라남도 곡성군 고달면 두가리,#유원지 #곡성군 #가정역 #증기기관차 #현수교 #자건거여행 #힐링&휴양여행 #관광지 #산책하기좋은곳      ,254,562,35.23543929,127.3710098,7
562,1,장자교(군산),전북특별자치도 군산시 옥도면 선유도리,#관광지 #군산 #다리 #현수교 #대교 #교량 #군산장자교 #군산여행 #드라이브 #장자교,255,563,35.81119077,126.4005313,8
563,1,마음정원,경기도 남양주시 조안면 송촌리,#관광지 #남양주마음정원 #용진나루터 #생명농장딸기체험 #조안유아숲체험 #북한강변산책길 #서울근교드라이브코스    ,256,564,37.56815195,127.3231174,1
564,1,압록나루(압록유원지),전라남도 곡성군 죽곡면 섬진강로 1012,#관광지 #압록나루 #드라이브코스 #나룻터풍경 #압록마을 #나루터 #줄배,257,565,35.19199986,127.3775298,7
565,1,속초해안로,강원특별자치도 속초시 장사동 517-13,#관광지,258,566,38.22349682,128.5886827,2
566,1,서남문대교,전라남도 신안군 비금면,#인문학 #드라이브 #연도교 #다리 #건축물 #조형물 #관광지 #바다경치 #드라이브여행 #대교 #흑산도 #홍도  ,259,567,34.7152241,125.937452,7
567,1,해운대 달맞이길,부산광역시 해운대구 달맞이길 190,#해운대달맞이길 #경상권 #걷기길 #야경투어 #연인과함께 #친구와함께 #자연 #바다풍경 #드라이브여행 #관광지            ,260,568,35.15771936,129.1825699,6
568,1,저구마을,경상남도 거제시 남부면 저구2길 15,#관광지 #저구마을 #저구마을수국동산 #수국 #남부면수국축제 #수국축제 #수국동산,261,569,34.73277026,128.6078424,5
569,1,초지대교,인천광역시 강화군 길상면,#대교 #드라이브여행 #드라이브 #인천 #강화대교 #경치좋은곳 #연인과함께 #관광지 #바다내음 #바다경치      ,262,570,37.62837524,126.5332211,1
570,1,여수 가사리 생태공원,전라남도 여수시 소라면 관기길 327,#관광지 #여수가사리갈대밭 #갈대밭 #산책코스 #전라남도여행 #전라남도여행지추천 #여수여행 #여수여행지 ,263,571,34.74833959,127.5944942,7
571,1,최정산,대구광역시 달성군 가창면 주리2길,#자연 #관광지 #자연환경 #자연관광지 #자연좋은곳 #자연풍경 #자연여행 #자연속으로 #등산 #등산객    #최정산드라이브   ,264,572,35.75732994,128.5946103,6
572,1,남면 벚꽃길,충청남도 태안군 남면 달산포로 311,#관광지 #태안남면벚꽃길 #태안벚꽃길 #남면벚꽃 #벚꽃개화 #벚꽃길드라이브 #벚꽃터널 #달산리벚꽃 #달산포해수욕장,265,573,36.67176536,126.2981322,3
573,1,지리산 가는길,경상남도 함양군 휴천면,#자연 #자연환경 #자연관광지 #자연좋은곳 #자연풍경 #자연여행 #경치좋은곳 #경치여행 #경상남도여행 #드라이브코스 #드라이브여행     ,266,574,35.47335431,127.7021188,5
574,1,종달리수국길,제주특별자치도 제주시 구좌읍 종달리 112-4,#관광지 #제주여행 #종달리 #제주도수국 #제주도해안길 #제주가볼만한곳 #제주드라이브 #수국명소 #종달리수국길,267,575,33.50997428,126.9073118,9
575,1,횡성자연휴양림,강원특별자치도 횡성군 갑천면 정포로430번길 113,#자연 #휴양여행 #힐링 #강원권 #관광지 #휴식하기좋은곳 #휴식공간 #힐링여행 #자연환경 #자연좋은곳 #자연풍경        ,268,576,37.5390977,128.1118745,2
576,1,의림지솔밭공원,충청북도 제천시 의림지로 33,#관광지 #제천여행 #제천아기랑 #제천드라이브 #제천산책 #제천가족나들이장소 #제천공원 #제천물놀이 ,269,577,37.1741833,128.2080794,3
577,1,한산도 망산,경상남도 통영시 한산면 하소리,#자연 #경상권 #망산 #전망 #등산 #송림욕 #관광지 #자연환경 #자연좋은곳 #자연풍경 #바다경치 #경치좋은곳    ,270,578,34.77030845,128.4925236,5
578,1,제주 하도리 철새도래지,제주특별자치도 제주시 구좌읍 하도리,#제주하도리철새도래지 #제주권 #생태관광 #가족여행 #데이트코스 #걷기길 #전망좋은곳 #체험학습 #드라이브여행    ,271,579,33.52047007,126.8905991,9
579,1,함안경비행장 (성우항공산업),경상남도 함안군 법수면 악양길 43,#관광지 #항공체험 #이색체험 #체험프로그램 #경비행장 #힐링여행 #자유여행 #남녀노소 #함안여행 #함안가볼만한곳   ,272,580,35.33002991,128.3870874,5
580,1,영도 하늘전망대,부산광역시 영도구 절영로 321,#관광지 #부산드라이브 #야경촬영장소 #노을명소 #전망대 #부산스노클링 #부산노을명소 #데이트명소 #부산야경명소,273,581,35.07196271,129.0548556,4
581,1,만항재,강원특별자치도 정선군 고한읍 함백산로 865,#만항재 #정선가볼만한곳 #눈꽃명소 #함백산 #드라이브여행 #풍경여행 #관광지 #운탄고도 #만항재운탄고도 #자전거여행,274,582,37.14863546,128.899071,2
582,1,두창저수지,경기도 용인시 처인구 원삼면 두창호수로 239-1,#관광지 #두창저수지 #두창호수 #드라이브코스 #차박하기좋은곳 #두창낚시터 #산책하기좋은 #캠핑,275,583,37.15255039,127.3404165,1
583,1,금강생태공원(서천생태공원),충청남도 서천군 마서면 장산로 916,#관광지 #서천여행 #생태공원 #서천데이트코스 #서천산책 #서천공원 #서천드라이브,276,584,36.02283909,126.7427008,3
584,1,삼랑진 양수발전소 홍보관,경상남도 밀양시 삼랑진읍 행곡로 38,#문화시설 #양수발전소홍보관 #아이와함께 #가족과함께 #양수발전소 #천태호 #안태호 #에너지팜,277,585,35.41292117,128.8759479,5
585,1,신흥레저타운,경기도 양주시 장흥면 삼상리,#신흥레저타운 #수영장 #여름여행 #여름방학가볼만한곳 #연인과함께 #데이트코스 #서울근교여행 #수도권         ,278,586,37.717825,126.9484361,1
586,1,황영조 기념공원,강원특별자치도 삼척시 근덕면 초곡길 176,#황영조기념공원 #테마공원 #강원권 #기념관 #연중무휴 #관광지 #휴식하기좋은곳 #휴식하기 #휴식여행 #휴식공간      ,279,587,37.30728047,129.2947031,2
587,1,아양기찻길,대구광역시 동구 해동로 82,#아양기찻길 #경상권 #근대산업유산 #연중무휴 #야경투어 #관광지 #드라이브코스 #드라이브여행 #드라이브 #데이트      ,280,588,35.89034903,128.6383389,6
588,1,천불천탑,경상남도 합천군 가회면 산두길 191-41,#관광지 #합천군 #불교성지 #기도도량 #여행지 #용탑스님 #석탑 #천불천탑 #2023_설날_소원,281,589,35.4881838,128.0495906,5
589,1,옥계항,강원특별자치도 강릉시 옥계면 주수리 558,#관광지 #경치좋은곳 #바다경치 #바다내음 #항구 #항만 #경치여행 #남녀노소 #자연환경 #자연좋은곳 #드라이브여행,282,590,37.61958989,129.0588673,2
590,1,노산리 솔밭 자연유원지,충청북도 청주시 서원구 현도면 노산리 899,#관광지 #청주여행 #청주유원지 #청주드라이브 #청주공원 #청주산책 #강변캠핑 #청주데이트코스,283,591,36.45330763,127.4411824,3
591,1,갈목해변,충청남도 서천군 마서면 송석리,#관광지 #서천여행 #서천데이트코스 #서천산책 #서천해변 #서천드라이브,284,592,36.07704496,126.6359118,3
592,1,김녕오조해안도로,제주특별자치도 제주시 구좌읍 월정리 1400-36,#관광지 #제주여행 #월정리해안도로 #제주드라이브 #김녕오조해안도로 #제주가볼만한곳 #올레20코스,285,593,33.56402728,126.7759997,9
593,1,제암리 3.1운동 순국기념관,경기도 화성시 향남읍 제암길 50,#제암리3.1운동순국기념관 #기념관 #전통&역사문화체험 #교과서속여행 #서울근교여행 #수도권 #당일치기여행,286,594,37.12615655,126.8922134,1
594,1,비암사 도깨비도로,세종특별자치시  비암사길 137 비암사,#체험 #귀신 #도깨비도로 #도깨비 #공포체험 #호러 #이색체험 #아이와함께 #친구와함께 #여름방학여행        ,287,595,36.61091012,127.1918783,3
595,1,월성계곡,경상남도 거창군 북상면 월성리,#자연 #관광지 #여름피서지 #여름여행 #여름가볼만한곳 #가족과함께 #아이와함께 #휴식하기좋은곳 #자연환경         ,288,596,35.75794201,127.72972,5
596,1,팔영대교,전라남도 고흥군 영남면,#관광지 #경치좋은곳 #경치여행 #바다경치 #드라이브여행 #드라이브코스 #연인과함께 #고흥바다 #고흥여행 #남녀노소,289,597,34.63089827,127.4959919,7
597,1,이사부길(새천년해안도로),강원특별자치도 삼척시 새천년도로 61-18,#드라이브코스 #드라이브여행 #해안드라이브 #경치좋은곳 #바다경치 #자연환경 #자연좋은곳 #연인과함께 #친구와함께       ,290,598,37.43928542,129.188028,2
598,1,미래지 농촌 테마공원(미래지 농어촌 테마공원),충청북도 청주시 청원구 오창읍 용두리 1-13,#관광지 #청주여행 #청주캠핑 #청주드라이브 #청주산책 #청주공원 #청주데이트코스,291,599,36.73174447,127.4042336,3
599,1,거제도,경상남도 거제시 거제면 거제도,#자연 #관광지 #거제대교 #거가대교 #장승포항 #해금강 #외도보타니아 #거제관광 #매미성,292,600,34.85482444,128.5172415,5
600,1,송산유원지,광주광역시 광산구 박호등임로 43-1,#송산유원지 #무료입장 #유원지 #자연좋은곳 #아이와함께 #가족여행 #친구와함께 #연인과함께 #체험학습 #데이트코스         ,293,601,35.15871215,126.7361567,7
601,1,전곡항 부잔교,경기도 화성시 서신면 전곡항로 21-4,#관광지 #전곡항부잔교 #서해여행 #일몰명소 #바다낚시 #차박 #바다여행 #드라이브코스,294,602,37.1870786,126.6520669,1
602,1,대성저수지,경상북도 김천시 아포읍 대성지1길 593-43,#관광지 #대성저수지 #김천저수지 #김천가볼만한곳,295,603,36.12114385,128.2702233,6
603,1,"남양주 홍릉(고종과 명성황후)과 유릉(순종과 순명,순정 황후) [[유네스코 세계유산]]",경기도 남양주시 홍유릉로 352-1,#남양주홍릉과유릉 #유네스코세계문화유산 #교과서속여행 #서울근교여행 #수도권 #당일치기여행 #아이와함께                 ,296,604,37.63155642,127.2096231,1
604,1,안태공원,경상남도 밀양시 삼랑진읍 행곡로 215,#관광지 #밀양시 #천태호 #안태호 #양수발전소 #여행지 #삼랑진 #호수공원,297,605,35.4228174,128.8824193,5
605,1,장지리저수지,경기도 화성시 경기동로 378,#관광지 #장지저수지 #장지생태문화공원 #산책코스 #장지리저수지 #화성가볼만한곳 #드라이브코스,298,606,37.15187131,127.1088569,1
606,1,삼성화재 모빌리티뮤지엄,경기도 용인시 처인구 포곡읍 에버랜드로376번길 171,#삼성화재교통박물관 #자동차 #수도권 #아이와함께 #이색체험 #박물관 #체험학습 #전시관 #삼성화재             ,299,607,37.30036163,127.2169347,1
607,1,불영계곡 (경북 동해안 국가지질공원),경상북도 울진군 울진읍 불영계곡로 2758,#자연 #경상권 #계곡 #명승 #자연유산 #자연좋은곳 #경치좋은곳 #피서여행 #드라이브여행 #관광지      ,300,608,36.96607009,129.3205334,6
608,1,용평터널,경상남도 밀양시 용평로 330-7,#관광지 #경남가볼만한곳 #기차터널 #경상남도_여행지_추천 #경남권 #사진명소,301,609,35.49866253,128.779954,5
609,1,안민고개,경상남도 창원시 성산구 안민동 장복산 일대,#자연 #관광지 #걷기 #벚꽃 #힐링 #경상남도 #연인과함께 #가족과함께,302,610,35.16519812,128.6765082,5
610,1,대청댐 전망대,충청북도 청주시 상당구 문의면 대청호반로 206,#관광지 #청주여행 #대청댐전망대 #청주드라이브 #청주전망대 #청주대청댐 #청주산책,303,611,36.47966649,127.4843917,3
611,1,낭하리해변,인천광역시 옹진군 영흥면 선재리 430-90,#낭하리해변 #사진찍기좋은바다 #서울근교바다 #낭하리해수욕장 #그대에게 #러블리즈촬영지 #관광지,304,612,37.24114513,126.5266629,1
612,1,동월계곡,충청남도 공주시 반포면 동월1길 238,#관광지 #공주여행 #공주데이트코스 #공주계곡 #공주산책 #공주드라이브,305,613,36.33760655,127.2599768,3
613,1,양촌자연휴양림,충청남도 논산시 양촌면 매죽헌로1723번길 176-23,#관광지 #논산여행 #논산물놀이 #논산드라이브 #논산휴양림 #논산산책 #논산데이트코스,306,614,36.1572797,127.2465217,3
614,1,영천 자천리 오리장림,경상북도 영천시 화북면 자천리,#오리장림 #자천숲 #경상권 #천연기념물 #자연유산 #생태관광지 #자연 #자연좋은곳 #드라이브여행 #관광지,307,615,36.10416607,128.914939,6
615,1,용문산 백운봉,경기도 양평군 용문면 연수리,#자연 #수도권 #용문산 #백운봉 #산 #등산 #관광지 #양평백운봉 #용문산자연휴양림,308,616,37.51963938,127.5429655,1
616,1,비인해수욕장,충청남도 서천군 비인면 갯벌체험로 492-24,#관광지 #서천여행 #비인해수욕장 #서천가족여행 #서천갯벌체험 #서천해수욕장 #서천드라이브,309,617,36.13354036,126.5822873,3
617,1,압해도선착장,전라남도 신안군 압해읍 천사로 13,#관광지 #압해도선착장 #요트선착장 #1004섬요트관광 #압해도 #신안배낚시 #신안여행 #목포야경 #신안섬여행,310,618,34.81499466,126.3575042,7
618,1,탄도인공습지공원,경기도 화성시 송산면 지화리,#관광지 #탄도인공습지공원 #갈대밭 #생태학습 #화성드라이브 #화성가볼만한곳 #일몰명소,311,619,37.21130112,126.6709117,1
619,1,유엔군 초전기념비,경기도 오산시 경기대로 742,#유엔군초전기념비 #전통&역사문화체험 #수도권 #서울근교여행 #당일치기여행 #아이와함께 #친구와함께     #드라이브여행      ,312,620,37.18378601,127.0498447,1
620,1,일몰공원,전라남도 완도군 군외면 대문리,#관광지 #완도여행 #공원 #완도공원 #바다전망대 #일몰명소 #완도일몰명소 #완도바다전망대,313,621,34.36175576,126.6420039,7
621,1,국립 대관령자연휴양림,강원특별자치도 강릉시 성산면 어흘리 삼포암길 133,#국립대관령자연휴양림 #휴양림 #자연좋은곳 #등산로 #친구와함께 #아이와함께 #연인과함께 #가족여행             ,314,622,37.70927691,128.7815479,2
622,1,포천 산정호수,경기도 포천시 영북면 산정호수로411번길 104,#포천산정호수 #서울근교여행 #수도권 #당일치기여행 #아이와함께 #친구와함께 #가족여행 #체험학습 #나들이  #드라이브여행          ,315,623,38.06883809,127.3221029,1
623,1,대저수문 생태공원,부산광역시 강서구 대저1동 279-9,#관광지 #대저수문생태공원 #피크닉 #낙동강 #대저수문 #가족나들이 #생태공원,316,624,35.23009663,128.9924095,4
624,1,조선일보미술관,서울특별시 중구 세종대로21길 33,#조선일보미술관 #전시관 #미술관 #예술 #친구와함께 #아이와함께 #연인과함께 #데이트코스 #체험학습 #나들이   #드라이브여행    ,317,625,37.56787626,126.9754657,1
625,1,소양벚꽃길,전북특별자치도 완주군 소양면 송광수만로 256,#관광지 #완주송광사벚꽃길 #송광사벚꽃길 #완주벚꽃명소 #송광사벚꽃 #완주봄나들이 #완주여행,318,626,35.8837525,127.2435459,8
626,1,의왕도깨비도로,경기도 의왕시 안양판교로 500,#관광지 #청계산 #체험 #착시현상 #나들이 #도깨비도로 #의왕도깨비도로 #서울근교나들이 #신비의도로 #드라이브코스  ,319,627,37.39358627,127.0249744,1
627,1,병대도전망대,경상남도 거제시 남부면 거제남서로 727-17,#관광지 #병대도전망대 #거제도해안도로 #거제여행 #거제둘레길 #한려해상국립공원 #거제드라이브 #신선대 ,320,628,34.70384575,128.6101152,5
628,1,하방 인공습지(비점오염저감시설),충청북도 충주시 봉방동,#관광지 #충주여행 #하방마을 #충주포토존 #충주데이트코스 #충주산책 #충주드라이브,321,629,36.97775024,127.9025208,3
629,1,순례자의 교회,제주특별자치도 제주시 한경면 일주서로 3960-24,#관광지 #제주도 #작은교회당 #제주사진명소 #길위에서묻다 #순례자의교회 #제주드라이브 #2023_설날_소원,322,630,33.31983096,126.1805487,9
630,1,달맞이동산,부산광역시 해운대구 달맞이길 184 청사포공원해월정화장실,#관광지 #달맞이동산 #해운대달맞이길 #달맞이길공원 #달맞이길산책로 #해운대공원,323,631,35.15713053,129.1821533,6
631,1,섬진강변 철쭉길,전라남도 곡성군 섬진강로 1877 섬진강레일바이크,#관광지 #섬진강철쭉길 #곡성의봄 #섬진강기차마을 #곡성섬진강기차마을 #곡성9경 #곡성구경 #곡성철쭉길,324,632,35.25900848,127.3492528,7
632,1,삼일공원,충청북도 청주시 상당구 수동 산4-40,#관광지 #청주여행 #청주삼일공원 #청주공원 #청주데이트코스 #청주산책 #청주드라이브,325,633,36.64212028,127.4953224,3
633,1,거제 유호리전망대,경상남도 거제시 장목면 유호리 산 85-2,#관광지 #경치좋은곳 #경치여행 #거제가볼만한곳 #자연환경 #자연좋은곳 #남녀노소 #야경 #야경좋은곳 #거가대교        ,326,634,35.01510179,128.7172948,5
634,1,동촌유원지,대구광역시 동구 효동로2길 72,#유원지 #산책코스 #산책하기좋은곳 #드라이브코스 #대구시민 #실내운동 #가족과함께 #관광지 #휴식하기좋은곳     ,327,635,35.87827847,128.6546406,6
635,1,남당리 행복마을,충청남도 서천군 비인면 남당길63번길 23-6,#체험 #관광지 #산책하기좋은곳 #산책길 #절영해안산책로 #자연환경 #자연마을 #자연좋은곳 #자연풍경 #자연여행       ,328,636,36.17133105,126.6158889,3
636,1,종달리 해안도로,제주특별자치도 제주시 구좌읍 종달리,#해안도로 #제주도여행 #드라이브코스 #드라이브여행 #해안절경 #연인과함께 #휴식하기 #휴식여행 #자연환경      ,329,637,33.48615734,126.8997102,9
637,1,다사항,충청남도 서천군 비인면 갯벌체험로944번길 64-12,#관광지 #서천여행 #서천데이트코스 #서천낚시 #서천항구 #서천드라이브,330,638,36.09704506,126.61303,3
638,1,덕산저수지,경기도 안성시 삼죽면 보삼로 634-16,#관광지 #덕산호수 #안성저수지 #호수산책 #삼죽면 #덕산저수지 #KGC인재개발원인근,331,639,37.06884936,127.3632168,1
639,1,용계저수지,충청북도 음성군 금왕읍 백야리 18,#관광지 #음성여행 #음성데이트코스 #음성산책 #음성저수지,332,640,36.97221208,127.6039395,3
640,1,칠곡저수지,경기도 안성시 원곡면 칠곡리,#관광지 #안성저수지 #칠곡낚시터 #칠곡리저수지 #경기남부저수지 #칠곡저수지,333,641,37.05145049,127.159769,1
641,1,거북선대교,전라남도 여수시 종화동,#전라권 #관광지 #거북선대교 #야경투어 #야경좋은곳 #경치좋은곳 #드라이브 #연인과함께 #바다경치 #여수밤바다  ,334,642,34.73643526,127.7495115,7
642,1,평대해변,제주특별자치도 제주시 구좌읍 평대리 1994-20,#관광지 #제주 #바다 #해수욕장,335,643,33.53324007,126.8406004,9
643,1,은포리해안도로,충청남도 보령시 주교면 송학리,#관광지 #해안도로 #드라이브코스 #해안드라이브 #드라이브여행 #연인과함께 #남녀노소 #휴식하기좋은곳      ,336,644,36.37197868,126.522717,3
